$GPGGA,224429.00,3724.991872,N,12204.805789,W,7,,0.38,-25.21,M,0.0,M,0.0,0000*7F
$GPRMC,224429.00,A,3724.991872,N,12204.805789,W,000.0,000.0,290520,,,A*4B
$GPGGA,224430.00,3724.992412,N,12204.806005,W,7,,0.38,-25.75,M,0.0,M,0.0,0000*7F
$GPRMC,224430.00,A,3724.992412,N,12204.806005,W,000.5,000.0,290520,,,A*4F
$GPGGA,224431.00,3724.992826,N,12204.805970,W,7,,0.38,-24.79,M,0.0,M,0.0,0000*70
$GPRMC,224431.00,A,3724.992826,N,12204.805970,W,000.0,000.0,290520,,,A*48
$GPGGA,224432.00,3724.993438,N,12204.805754,W,7,,0.38,-25.76,M,0.0,M,0.0,0000*77
$GPRMC,224432.00,A,3724.993438,N,12204.805754,W,000.0,000.0,290520,,,A*41
$GPGGA,224433.00,3724.993552,N,12204.805663,W,7,,0.38,-28.06,M,0.0,M,0.0,0000*74
$GPRMC,224433.00,A,3724.993552,N,12204.805663,W,000.0,000.0,290520,,,A*48
$GPGGA,224434.00,3724.993732,N,12204.805364,W,7,,0.38,-29.81,M,0.0,M,0.0,0000*7B
$GPRMC,224434.00,A,3724.993732,N,12204.805364,W,000.0,000.0,290520,,,A*49
$GPGGA,224435.00,3724.993941,N,12204.805166,W,7,,0.38,-30.06,M,0.0,M,0.0,0000*77
$GPRMC,224435.00,A,3724.993941,N,12204.805166,W,000.0,000.0,290520,,,A*42
$GPGGA,224436.00,3724.993971,N,12204.805010,W,7,,0.38,-30.00,M,0.0,M,0.0,0000*71
$GPRMC,224436.00,A,3724.993971,N,12204.805010,W,000.0,000.0,290520,,,A*42
$GPGGA,224437.00,3724.993984,N,12204.804992,W,7,,0.38,-30.19,M,0.0,M,0.0,0000*70
$GPRMC,224437.00,A,3724.993984,N,12204.804992,W,000.0,000.0,290520,,,A*4B
$GPGGA,224438.00,3724.994001,N,12204.804920,W,7,,0.38,-29.73,M,0.0,M,0.0,0000*71
$GPRMC,224438.00,A,3724.994001,N,12204.804920,W,000.0,000.0,290520,,,A*4E
$GPGGA,224439.00,3724.994068,N,12204.804811,W,7,,0.38,-29.16,M,0.0,M,0.0,0000*7F
$GPRMC,224439.00,A,3724.994068,N,12204.804811,W,000.0,000.0,290520,,,A*43
$GPGGA,224440.00,3724.994134,N,12204.804811,W,7,,0.38,-29.57,M,0.0,M,0.0,0000*7C
$GPRMC,224440.00,A,3724.994134,N,12204.804811,W,000.0,000.0,290520,,,A*45
$GPGGA,224441.00,3724.994007,N,12204.804511,W,7,,0.38,-28.62,M,0.0,M,0.0,0000*76
$GPRMC,224441.00,A,3724.994007,N,12204.804511,W,000.0,000.0,290520,,,A*48
$GPGGA,224442.00,3724.994068,N,12204.804518,W,7,,0.38,-29.36,M,0.0,M,0.0,0000*75
$GPRMC,224442.00,A,3724.994068,N,12204.804518,W,000.0,000.0,290520,,,A*4B
$GPGGA,224443.00,3724.994073,N,12204.804739,W,7,,0.38,-29.33,M,0.0,M,0.0,0000*7A
$GPRMC,224443.00,A,3724.994073,N,12204.804739,W,000.6,359.9,290520,,,A*41
$GPGGA,224444.00,3724.994073,N,12204.805447,W,7,,0.38,-29.68,M,0.0,M,0.0,0000*78
$GPRMC,224444.00,A,3724.994073,N,12204.805447,W,000.0,000.0,290520,,,A*4D
$GPGGA,224445.00,3724.994109,N,12204.805940,W,7,,0.38,-29.74,M,0.0,M,0.0,0000*72
$GPRMC,224445.00,A,3724.994109,N,12204.805940,W,000.0,000.0,290520,,,A*4A
$GPGGA,224446.00,3724.994206,N,12204.806263,W,7,,0.38,-30.25,M,0.0,M,0.0,0000*78
$GPRMC,224446.00,A,3724.994206,N,12204.806263,W,000.0,000.0,290520,,,A*4C
$GPGGA,224447.00,3724.994121,N,12204.806677,W,7,,0.38,-29.98,M,0.0,M,0.0,0000*70
$GPRMC,224447.00,A,3724.994121,N,12204.806677,W,000.0,000.0,290520,,,A*4A
$GPGGA,224448.00,3724.994049,N,12204.806702,W,7,,0.38,-29.80,M,0.0,M,0.0,0000*7A
$GPRMC,224448.00,A,3724.994049,N,12204.806702,W,000.0,000.0,290520,,,A*49
$GPGGA,224449.00,3724.993239,N,12204.806930,W,7,,0.38,-31.60,M,0.0,M,0.0,0000*71
$GPRMC,224449.00,A,3724.993239,N,12204.806930,W,000.0,000.0,290520,,,A*45
$GPGGA,224450.00,3724.992867,N,12204.807121,W,7,,0.38,-31.59,M,0.0,M,0.0,0000*7A
$GPRMC,224450.00,A,3724.992867,N,12204.807121,W,000.0,000.0,290520,,,A*44
$GPGGA,224451.00,3724.992742,N,12204.807439,W,7,,0.38,-31.88,M,0.0,M,0.0,0000*73
$GPRMC,224451.00,A,3724.992742,N,12204.807439,W,000.0,000.0,290520,,,A*41
$GPGGA,224452.00,3724.992706,N,12204.807566,W,7,,0.38,-32.05,M,0.0,M,0.0,0000*7D
$GPRMC,224452.00,A,3724.992706,N,12204.807566,W,000.0,000.0,290520,,,A*49
$GPGGA,224453.00,3724.992610,N,12204.807799,W,7,,0.38,-32.15,M,0.0,M,0.0,0000*79
$GPRMC,224453.00,A,3724.992610,N,12204.807799,W,000.0,000.0,290520,,,A*4C
$GPGGA,224454.00,3724.992706,N,12204.807961,W,7,,0.38,-32.74,M,0.0,M,0.0,0000*76
$GPRMC,224454.00,A,3724.992706,N,12204.807961,W,000.0,000.0,290520,,,A*44
$GPGGA,224455.00,3724.992748,N,12204.808196,W,7,,0.38,-32.99,M,0.0,M,0.0,0000*71
$GPRMC,224455.00,A,3724.992748,N,12204.808196,W,000.0,000.0,290520,,,A*40
$GPGGA,224456.00,3724.992801,N,12204.808424,W,7,,0.38,-33.25,M,0.0,M,0.0,0000*7A
$GPRMC,224456.00,A,3724.992801,N,12204.808424,W,000.0,000.0,290520,,,A*4D
$GPGGA,224457.00,3724.992921,N,12204.808586,W,7,,0.99,-33.74,M,0.0,M,0.0,0000*7E
$GPRMC,224457.00,A,3724.992921,N,12204.808586,W,000.0,000.0,290520,,,A*46
$GPGGA,224458.00,3724.993059,N,12204.808610,W,7,,0.99,-34.12,M,0.0,M,0.0,0000*7D
$GPRMC,224458.00,A,3724.993059,N,12204.808610,W,000.0,000.0,290520,,,A*42
$GPGGA,224459.00,3724.993150,N,12204.808633,W,7,,0.99,-34.33,M,0.0,M,0.0,0000*76
$GPRMC,224459.00,A,3724.993150,N,12204.808633,W,000.0,000.0,290520,,,A*4A
$GPGGA,224500.00,3724.993222,N,12204.808652,W,7,,0.99,-34.52,M,0.0,M,0.0,0000*7D
$GPRMC,224500.00,A,3724.993222,N,12204.808652,W,000.0,000.0,290520,,,A*46
$GPGGA,224501.00,3724.993269,N,12204.808670,W,7,,0.99,-34.65,M,0.0,M,0.0,0000*77
$GPRMC,224501.00,A,3724.993269,N,12204.808670,W,000.0,000.0,290520,,,A*48
$GPGGA,224502.00,3724.993294,N,12204.808670,W,7,,0.99,-34.68,M,0.0,M,0.0,0000*7B
$GPRMC,224502.00,A,3724.993294,N,12204.808670,W,000.0,000.0,290520,,,A*49
$GPGGA,224503.00,3724.993294,N,12204.808663,W,7,,0.99,-34.76,M,0.0,M,0.0,0000*77
$GPRMC,224503.00,A,3724.993294,N,12204.808663,W,000.0,000.0,290520,,,A*4A
$GPGGA,224504.00,3724.993294,N,12204.808663,W,7,,0.99,-34.77,M,0.0,M,0.0,0000*71
$GPRMC,224504.00,A,3724.993294,N,12204.808663,W,000.0,000.0,290520,,,A*4D
$GPGGA,224505.00,3724.993294,N,12204.808663,W,7,,0.99,-34.79,M,0.0,M,0.0,0000*7E
$GPRMC,224505.00,A,3724.993294,N,12204.808663,W,000.0,000.0,290520,,,A*4C
$GPGGA,224506.00,3724.993294,N,12204.808658,W,7,,0.99,-34.81,M,0.0,M,0.0,0000*72
$GPRMC,224506.00,A,3724.993294,N,12204.808658,W,000.0,000.0,290520,,,A*47
$GPGGA,224507.00,3724.993294,N,12204.808658,W,7,,0.99,-34.85,M,0.0,M,0.0,0000*77
$GPRMC,224507.00,A,3724.993294,N,12204.808658,W,000.0,000.0,290520,,,A*46
$GPGGA,224508.00,3724.993294,N,12204.808658,W,7,,0.99,-34.85,M,0.0,M,0.0,0000*78
$GPRMC,224508.00,A,3724.993294,N,12204.808658,W,000.0,000.0,290520,,,A*49
$GPGGA,224509.00,3724.993294,N,12204.808658,W,7,,0.99,-34.87,M,0.0,M,0.0,0000*7B
$GPRMC,224509.00,A,3724.993294,N,12204.808658,W,000.0,000.0,290520,,,A*48
$GPGGA,224510.00,3724.993294,N,12204.808663,W,7,,0.99,-34.86,M,0.0,M,0.0,0000*7A
$GPRMC,224510.00,A,3724.993294,N,12204.808663,W,000.0,000.0,290520,,,A*48
$GPGGA,224511.00,3724.993294,N,12204.808663,W,7,,0.99,-34.86,M,0.0,M,0.0,0000*7B
$GPRMC,224511.00,A,3724.993294,N,12204.808663,W,000.0,000.0,290520,,,A*49
$GPGGA,224512.00,3724.993294,N,12204.808663,W,7,,0.99,-34.88,M,0.0,M,0.0,0000*76
$GPRMC,224512.00,A,3724.993294,N,12204.808663,W,000.0,000.0,290520,,,A*4A
$GPGGA,224513.00,3724.993294,N,12204.808663,W,7,,0.99,-34.86,M,0.0,M,0.0,0000*79
$GPRMC,224513.00,A,3724.993294,N,12204.808663,W,000.0,000.0,290520,,,A*4B
$GPGGA,224514.00,3724.993300,N,12204.808658,W,7,,0.99,-34.82,M,0.0,M,0.0,0000*7E
$GPRMC,224514.00,A,3724.993300,N,12204.808658,W,000.0,000.0,290520,,,A*48
$GPGGA,224515.00,3724.993017,N,12204.807704,W,7,,0.99,-33.97,M,0.0,M,0.0,0000*7E
$GPRMC,224515.00,A,3724.993017,N,12204.807704,W,002.2,104.2,290520,,,A*4C
$GPGGA,224516.00,3724.992634,N,12204.806198,W,7,,0.99,-33.71,M,0.0,M,0.0,0000*71
$GPRMC,224516.00,A,3724.992634,N,12204.806198,W,003.4,104.2,290520,,,A*4C
$GPGGA,224517.00,3724.992069,N,12204.799885,W,7,,0.99,-33.14,M,0.0,M,0.0,0000*71
$GPRMC,224517.00,A,3724.992069,N,12204.799885,W,010.6,093.8,290520,,,A*4A
$GPGGA,224518.00,3724.991554,N,12204.794324,W,7,,0.99,-32.71,M,0.0,M,0.0,0000*79
$GPRMC,224518.00,A,3724.991554,N,12204.794324,W,013.8,093.9,290520,,,A*4C
$GPGGA,224519.00,3724.990996,N,12204.788504,W,7,,0.99,-32.69,M,0.0,M,0.0,0000*7B
$GPRMC,224519.00,A,3724.990996,N,12204.788504,W,016.5,094.2,290520,,,A*43
$GPGGA,224520.00,3724.990581,N,12204.781640,W,7,,0.99,-32.10,M,0.0,M,0.0,0000*7F
$GPRMC,224520.00,A,3724.990581,N,12204.781640,W,018.5,094.3,290520,,,A*46
$GPGGA,224521.00,3724.990437,N,12204.774337,W,7,,0.99,-33.32,M,0.0,M,0.0,0000*7C
$GPRMC,224521.00,A,3724.990437,N,12204.774337,W,019.5,094.1,290520,,,A*47
$GPGGA,224522.00,3724.990095,N,12204.766927,W,7,,0.99,-32.77,M,0.0,M,0.0,0000*7B
$GPRMC,224522.00,A,3724.990095,N,12204.766927,W,020.8,094.2,290520,,,A*44
$GPGGA,224523.00,3724.989826,N,12204.759554,W,7,,0.99,-32.94,M,0.0,M,0.0,0000*7B
$GPRMC,224523.00,A,3724.989826,N,12204.759554,W,021.3,094.5,290520,,,A*44
$GPGGA,224524.00,3724.989400,N,12204.751382,W,7,,0.99,-32.97,M,0.0,M,0.0,0000*72
$GPRMC,224524.00,A,3724.989400,N,12204.751382,W,022.3,094.6,290520,,,A*4E
$GPGGA,224525.00,3724.988950,N,12204.743612,W,7,,0.39,-32.08,M,0.0,M,0.0,0000*79
$GPRMC,224525.00,A,3724.988950,N,12204.743612,W,022.3,095.1,290520,,,A*4F
$GPGGA,224526.00,3724.988254,N,12204.735956,W,7,,0.38,-31.36,M,0.0,M,0.0,0000*74
$GPRMC,224526.00,A,3724.988254,N,12204.735956,W,021.3,094.9,290520,,,A*47
$GPGGA,224527.00,3724.988008,N,12204.728725,W,7,,0.38,-31.66,M,0.0,M,0.0,0000*7D
$GPRMC,224527.00,A,3724.988008,N,12204.728725,W,019.5,094.5,290520,,,A*4A
$GPGGA,224528.00,3724.987492,N,12204.721850,W,7,,0.38,-31.42,M,0.0,M,0.0,0000*78
$GPRMC,224528.00,A,3724.987492,N,12204.721850,W,018.2,094.4,290520,,,A*4E
$GPGGA,224529.00,3724.987083,N,12204.715520,W,7,,0.38,-30.91,M,0.0,M,0.0,0000*7F
$GPRMC,224529.00,A,3724.987083,N,12204.715520,W,015.7,094.7,290520,,,A*4D
$GPGGA,224530.00,3724.986675,N,12204.710899,W,7,,0.38,-30.64,M,0.0,M,0.0,0000*79
$GPRMC,224530.00,A,3724.986675,N,12204.710899,W,012.1,095.6,290520,,,A*40
$GPGGA,224531.00,3724.986286,N,12204.707528,W,7,,0.38,-30.16,M,0.0,M,0.0,0000*74
$GPRMC,224531.00,A,3724.986286,N,12204.707528,W,008.6,096.4,290520,,,A*45
$GPGGA,224532.00,3724.986051,N,12204.704786,W,7,,0.38,-29.87,M,0.0,M,0.0,0000*7A
$GPRMC,224532.00,A,3724.986051,N,12204.704786,W,005.9,096.9,290520,,,A*44
$GPGGA,224533.00,3724.985721,N,12204.702967,W,7,,0.38,-29.86,M,0.0,M,0.0,0000*7E
$GPRMC,224533.00,A,3724.985721,N,12204.702967,W,004.7,097.4,290520,,,A*42
$GPGGA,224534.00,3724.985577,N,12204.701407,W,7,,0.38,-29.91,M,0.0,M,0.0,0000*76
$GPRMC,224534.00,A,3724.985577,N,12204.701407,W,004.4,097.7,290520,,,A*4C
$GPGGA,224535.00,3724.985380,N,12204.699811,W,7,,0.38,-29.58,M,0.0,M,0.0,0000*77
$GPRMC,224535.00,A,3724.985380,N,12204.699811,W,004.3,098.7,290520,,,A*40
$GPGGA,224536.00,3724.985194,N,12204.698245,W,7,,0.38,-29.36,M,0.0,M,0.0,0000*71
$GPRMC,224536.00,A,3724.985194,N,12204.698245,W,004.3,098.5,290520,,,A*4C
$GPGGA,224537.00,3724.985037,N,12204.696560,W,7,,0.38,-29.37,M,0.0,M,0.0,0000*77
$GPRMC,224537.00,A,3724.985037,N,12204.696560,W,004.6,099.3,290520,,,A*49
$GPGGA,224538.00,3724.984845,N,12204.695312,W,7,,0.38,-29.22,M,0.0,M,0.0,0000*70
$GPRMC,224538.00,A,3724.984845,N,12204.695312,W,003.0,101.7,290520,,,A*4F
$GPGGA,224539.00,3724.984707,N,12204.694987,W,7,,0.38,-29.37,M,0.0,M,0.0,0000*7B
$GPRMC,224539.00,A,3724.984707,N,12204.694987,W,000.6,103.7,290520,,,A*47
$GPGGA,224540.00,3724.984587,N,12204.694741,W,7,,0.38,-28.87,M,0.0,M,0.0,0000*71
$GPRMC,224540.00,A,3724.984587,N,12204.694741,W,000.0,000.0,290520,,,A*44
$GPGGA,224541.00,3724.984540,N,12204.694753,W,7,,0.38,-28.83,M,0.0,M,0.0,0000*7C
$GPRMC,224541.00,A,3724.984540,N,12204.694753,W,000.0,000.0,290520,,,A*4D
$GPGGA,224542.00,3724.984534,N,12204.694741,W,7,,0.38,-28.83,M,0.0,M,0.0,0000*7F
$GPRMC,224542.00,A,3724.984534,N,12204.694741,W,000.0,000.0,290520,,,A*4E
$GPGGA,224543.00,3724.984443,N,12204.694562,W,7,,0.38,-28.96,M,0.0,M,0.0,0000*78
$GPRMC,224543.00,A,3724.984443,N,12204.694562,W,001.3,104.1,290520,,,A*4B
$GPGGA,224544.00,3724.983820,N,12204.693458,W,7,,0.38,-28.66,M,0.0,M,0.0,0000*71
$GPRMC,224544.00,A,3724.983820,N,12204.693458,W,005.1,107.5,290520,,,A*4C
$GPGGA,224545.00,3724.982217,N,12204.691843,W,7,,0.38,-28.60,M,0.0,M,0.0,0000*7D
$GPRMC,224545.00,A,3724.982217,N,12204.691843,W,008.7,131.0,290520,,,A*4D
$GPGGA,224546.00,3724.979434,N,12204.690649,W,7,,0.38,-28.65,M,0.0,M,0.0,0000*7D
$GPRMC,224546.00,A,3724.979434,N,12204.690649,W,011.5,160.3,290520,,,A*45
$GPGGA,224547.00,3724.975720,N,12204.689864,W,7,,0.38,-28.57,M,0.0,M,0.0,0000*7E
$GPRMC,224547.00,A,3724.975720,N,12204.689864,W,014.5,169.6,290520,,,A*4E
$GPGGA,224548.00,3724.971495,N,12204.689527,W,7,,0.38,-28.45,M,0.0,M,0.0,0000*71
$GPRMC,224548.00,A,3724.971495,N,12204.689527,W,015.5,175.9,290520,,,A*41
$GPGGA,224549.00,3724.967301,N,12204.689713,W,7,,0.38,-28.69,M,0.0,M,0.0,0000*76
$GPRMC,224549.00,A,3724.967301,N,12204.689713,W,016.0,179.9,290520,,,A*42
$GPGGA,224550.00,3724.962705,N,12204.689894,W,7,,0.38,-28.60,M,0.0,M,0.0,0000*72
$GPRMC,224550.00,A,3724.962705,N,12204.689894,W,016.4,180.9,290520,,,A*4D
$GPGGA,224551.00,3724.958458,N,12204.690187,W,7,,0.38,-28.58,M,0.0,M,0.0,0000*79
$GPRMC,224551.00,A,3724.958458,N,12204.690187,W,014.8,182.0,290520,,,A*48
$GPGGA,224552.00,3724.954876,N,12204.690386,W,7,,0.38,-28.31,M,0.0,M,0.0,0000*7A
$GPRMC,224552.00,A,3724.954876,N,12204.690386,W,012.2,182.8,290520,,,A*40
$GPGGA,224553.00,3724.951918,N,12204.690482,W,7,,0.38,-28.04,M,0.0,M,0.0,0000*72
$GPRMC,224553.00,A,3724.951918,N,12204.690482,W,009.4,184.0,290520,,,A*4C
$GPGGA,224554.00,3724.949770,N,12204.690596,W,7,,0.38,-27.98,M,0.0,M,0.0,0000*72
$GPRMC,224554.00,A,3724.949770,N,12204.690596,W,006.7,184.2,290520,,,A*48
$GPGGA,224555.00,3724.948348,N,12204.690679,W,7,,0.38,-27.85,M,0.0,M,0.0,0000*73
$GPRMC,224555.00,A,3724.948348,N,12204.690679,W,004.2,184.3,290520,,,A*43
$GPGGA,224556.00,3724.947478,N,12204.690745,W,7,,0.38,-27.83,M,0.0,M,0.0,0000*73
$GPRMC,224556.00,A,3724.947478,N,12204.690745,W,002.4,184.0,290520,,,A*46
$GPGGA,224557.00,3724.947046,N,12204.690751,W,7,,0.38,-27.80,M,0.0,M,0.0,0000*7D
$GPRMC,224557.00,A,3724.947046,N,12204.690751,W,001.1,183.9,290520,,,A*43
$GPGGA,224558.00,3724.946860,N,12204.690770,W,7,,0.38,-27.76,M,0.0,M,0.0,0000*75
$GPRMC,224558.00,A,3724.946860,N,12204.690770,W,000.0,000.0,290520,,,A*41
$GPGGA,224559.00,3724.946848,N,12204.690745,W,7,,0.38,-27.73,M,0.0,M,0.0,0000*7D
$GPRMC,224559.00,A,3724.946848,N,12204.690745,W,000.0,000.0,290520,,,A*4C
$GPGGA,224600.00,3724.946841,N,12204.690716,W,7,,0.38,-27.70,M,0.0,M,0.0,0000*7E
$GPRMC,224600.00,A,3724.946841,N,12204.690716,W,000.0,000.0,290520,,,A*4C
$GPGGA,224601.00,3724.946848,N,12204.690703,W,7,,0.38,-27.79,M,0.0,M,0.0,0000*7B
$GPRMC,224601.00,A,3724.946848,N,12204.690703,W,000.0,000.0,290520,,,A*40
$GPGGA,224602.00,3724.946835,N,12204.690679,W,7,,0.38,-27.88,M,0.0,M,0.0,0000*70
$GPRMC,224602.00,A,3724.946835,N,12204.690679,W,000.0,000.0,290520,,,A*45
$GPGGA,224603.00,3724.946829,N,12204.690686,W,7,,0.38,-27.87,M,0.0,M,0.0,0000*73
$GPRMC,224603.00,A,3724.946829,N,12204.690686,W,000.0,000.0,290520,,,A*49
$GPGGA,224604.00,3724.946829,N,12204.690686,W,7,,0.38,-27.88,M,0.0,M,0.0,0000*7B
$GPRMC,224604.00,A,3724.946829,N,12204.690686,W,000.0,000.0,290520,,,A*4E
$GPGGA,224605.00,3724.946835,N,12204.690686,W,7,,0.38,-27.88,M,0.0,M,0.0,0000*77
$GPRMC,224605.00,A,3724.946835,N,12204.690686,W,000.0,000.0,290520,,,A*42
$GPGGA,224606.00,3724.946835,N,12204.690679,W,7,,0.38,-27.88,M,0.0,M,0.0,0000*74
$GPRMC,224606.00,A,3724.946835,N,12204.690679,W,000.0,000.0,290520,,,A*41
$GPGGA,224607.00,3724.946835,N,12204.690679,W,7,,0.38,-27.88,M,0.0,M,0.0,0000*75
$GPRMC,224607.00,A,3724.946835,N,12204.690679,W,000.0,000.0,290520,,,A*40
$GPGGA,224608.00,3724.946835,N,12204.690679,W,7,,0.38,-27.88,M,0.0,M,0.0,0000*7A
$GPRMC,224608.00,A,3724.946835,N,12204.690679,W,000.0,000.0,290520,,,A*4F
$GPGGA,224609.00,3724.946835,N,12204.690686,W,7,,0.38,-27.87,M,0.0,M,0.0,0000*74
$GPRMC,224609.00,A,3724.946835,N,12204.690686,W,000.0,000.0,290520,,,A*4E
$GPGGA,224610.00,3724.946835,N,12204.690679,W,7,,0.38,-27.87,M,0.0,M,0.0,0000*7C
$GPRMC,224610.00,A,3724.946835,N,12204.690679,W,000.0,000.0,290520,,,A*46
$GPGGA,224611.00,3724.946829,N,12204.690679,W,7,,0.38,-27.87,M,0.0,M,0.0,0000*70
$GPRMC,224611.00,A,3724.946829,N,12204.690679,W,000.0,000.0,290520,,,A*4A
$GPGGA,224612.00,3724.946829,N,12204.690679,W,7,,0.38,-27.88,M,0.0,M,0.0,0000*7C
$GPRMC,224612.00,A,3724.946829,N,12204.690679,W,000.0,000.0,290520,,,A*49
$GPGGA,224613.00,3724.946829,N,12204.690686,W,7,,0.38,-27.88,M,0.0,M,0.0,0000*7D
$GPRMC,224613.00,A,3724.946829,N,12204.690686,W,000.0,000.0,290520,,,A*48
$GPGGA,224614.00,3724.946829,N,12204.690686,W,7,,0.38,-27.87,M,0.0,M,0.0,0000*75
$GPRMC,224614.00,A,3724.946829,N,12204.690686,W,000.0,000.0,290520,,,A*4F
$GPGGA,224615.00,3724.946829,N,12204.690679,W,7,,0.38,-27.87,M,0.0,M,0.0,0000*74
$GPRMC,224615.00,A,3724.946829,N,12204.690679,W,000.0,000.0,290520,,,A*4E
$GPGGA,224616.00,3724.946829,N,12204.690679,W,7,,0.38,-27.87,M,0.0,M,0.0,0000*77
$GPRMC,224616.00,A,3724.946829,N,12204.690679,W,000.0,000.0,290520,,,A*4D
$GPGGA,224617.00,3724.946835,N,12204.690686,W,7,,0.38,-27.87,M,0.0,M,0.0,0000*7B
$GPRMC,224617.00,A,3724.946835,N,12204.690686,W,000.0,000.0,290520,,,A*41
$GPGGA,224618.00,3724.946829,N,12204.690686,W,7,,0.38,-27.88,M,0.0,M,0.0,0000*76
$GPRMC,224618.00,A,3724.946829,N,12204.690686,W,000.0,000.0,290520,,,A*43
$GPGGA,224619.00,3724.946829,N,12204.690686,W,7,,0.38,-27.87,M,0.0,M,0.0,0000*78
$GPRMC,224619.00,A,3724.946829,N,12204.690686,W,000.0,000.0,290520,,,A*42
$GPGGA,224620.00,3724.946829,N,12204.690679,W,7,,0.38,-27.86,M,0.0,M,0.0,0000*73
$GPRMC,224620.00,A,3724.946829,N,12204.690679,W,000.0,000.0,290520,,,A*48
$GPGGA,224621.00,3724.946829,N,12204.690679,W,7,,0.38,-27.87,M,0.0,M,0.0,0000*73
$GPRMC,224621.00,A,3724.946829,N,12204.690679,W,000.0,000.0,290520,,,A*49
$GPGGA,224622.00,3724.946835,N,12204.690679,W,7,,0.38,-27.87,M,0.0,M,0.0,0000*7D
$GPRMC,224622.00,A,3724.946835,N,12204.690679,W,000.0,000.0,290520,,,A*47
$GPGGA,224623.00,3724.946835,N,12204.690686,W,7,,0.38,-27.88,M,0.0,M,0.0,0000*73
$GPRMC,224623.00,A,3724.946835,N,12204.690686,W,000.0,000.0,290520,,,A*46
$GPGGA,224624.00,3724.946829,N,12204.690686,W,7,,0.38,-27.88,M,0.0,M,0.0,0000*79
$GPRMC,224624.00,A,3724.946829,N,12204.690686,W,000.0,000.0,290520,,,A*4C
$GPGGA,224625.00,3724.946697,N,12204.690944,W,7,,0.38,-25.99,M,0.0,M,0.0,0000*70
$GPRMC,224625.00,A,3724.946697,N,12204.690944,W,000.0,000.0,290520,,,A*47
$GPGGA,224626.00,3724.946727,N,12204.690907,W,7,,0.38,-25.90,M,0.0,M,0.0,0000*77
$GPRMC,224626.00,A,3724.946727,N,12204.690907,W,000.0,000.0,290520,,,A*49
$GPGGA,224627.00,3724.946727,N,12204.690907,W,7,,0.38,-25.89,M,0.0,M,0.0,0000*7E
$GPRMC,224627.00,A,3724.946727,N,12204.690907,W,000.0,000.0,290520,,,A*48
$GPGGA,224628.00,3724.946733,N,12204.690907,W,7,,0.38,-25.90,M,0.0,M,0.0,0000*7C
$GPRMC,224628.00,A,3724.946733,N,12204.690907,W,000.0,000.0,290520,,,A*42
$GPGGA,224629.00,3724.946727,N,12204.690914,W,7,,0.38,-25.89,M,0.0,M,0.0,0000*72
$GPRMC,224629.00,A,3724.946727,N,12204.690914,W,000.0,000.0,290520,,,A*44
$GPGGA,224630.00,3724.946727,N,12204.690914,W,7,,0.38,-25.89,M,0.0,M,0.0,0000*7A
$GPRMC,224630.00,A,3724.946727,N,12204.690914,W,000.0,000.0,290520,,,A*4C
$GPGGA,224631.00,3724.946727,N,12204.690907,W,7,,0.38,-25.89,M,0.0,M,0.0,0000*79
$GPRMC,224631.00,A,3724.946727,N,12204.690907,W,000.0,000.0,290520,,,A*4F
$GPGGA,224632.00,3724.946733,N,12204.690902,W,7,,0.38,-25.90,M,0.0,M,0.0,0000*72
$GPRMC,224632.00,A,3724.946733,N,12204.690902,W,000.0,000.0,290520,,,A*4C
$GPGGA,224633.00,3724.946727,N,12204.690907,W,7,,0.38,-25.90,M,0.0,M,0.0,0000*73
$GPRMC,224633.00,A,3724.946727,N,12204.690907,W,000.0,000.0,290520,,,A*4D
$GPGGA,224634.00,3724.946547,N,12204.690805,W,7,,0.38,-25.34,M,0.0,M,0.0,0000*7D
$GPRMC,224634.00,A,3724.946547,N,12204.690805,W,001.5,183.8,290520,,,A*4B
$GPGGA,224635.00,3724.945275,N,12204.690788,W,7,,0.38,-25.12,M,0.0,M,0.0,0000*77
$GPRMC,224635.00,A,3724.945275,N,12204.690788,W,006.2,182.6,290520,,,A*4A
$GPGGA,224636.00,3724.942671,N,12204.690884,W,7,,0.38,-25.25,M,0.0,M,0.0,0000*74
$GPRMC,224636.00,A,3724.942671,N,12204.690884,W,010.6,181.3,290520,,,A*48
$GPGGA,224637.00,3724.939126,N,12204.690907,W,7,,0.38,-25.24,M,0.0,M,0.0,0000*77
$GPRMC,224637.00,A,3724.939126,N,12204.690907,W,014.3,180.4,290520,,,A*4D
$GPGGA,224638.00,3724.934901,N,12204.690889,W,7,,0.38,-25.24,M,0.0,M,0.0,0000*7F
$GPRMC,224638.00,A,3724.934901,N,12204.690889,W,016.3,180.6,290520,,,A*45
$GPGGA,224639.00,3724.930047,N,12204.690865,W,7,,0.38,-24.97,M,0.0,M,0.0,0000*7A
$GPRMC,224639.00,A,3724.930047,N,12204.690865,W,017.7,179.6,290520,,,A*4A
$GPGGA,224640.00,3724.924894,N,12204.690926,W,7,,0.38,-24.94,M,0.0,M,0.0,0000*72
$GPRMC,224640.00,A,3724.924894,N,12204.690926,W,019.0,179.9,290520,,,A*47
$GPGGA,224641.00,3724.919397,N,12204.690919,W,7,,0.38,-24.75,M,0.0,M,0.0,0000*76
$GPRMC,224641.00,A,3724.919397,N,12204.690919,W,020.3,180.2,290520,,,A*48
$GPGGA,224642.00,3724.913614,N,12204.690949,W,7,,0.38,-24.71,M,0.0,M,0.0,0000*70
$GPRMC,224642.00,A,3724.913614,N,12204.690949,W,020.9,180.1,290520,,,A*43
$GPGGA,224643.00,3724.907680,N,12204.690961,W,7,,0.38,-24.56,M,0.0,M,0.0,0000*76
$GPRMC,224643.00,A,3724.907680,N,12204.690961,W,021.6,180.2,290520,,,A*4D
$GPGGA,224644.00,3724.901434,N,12204.690884,W,7,,0.38,-24.13,M,0.0,M,0.0,0000*71
$GPRMC,224644.00,A,3724.901434,N,12204.690884,W,021.9,179.4,290520,,,A*44
$GPGGA,224645.00,3724.895433,N,12204.690800,W,7,,0.38,-23.81,M,0.0,M,0.0,0000*7B
$GPRMC,224645.00,A,3724.895433,N,12204.690800,W,022.1,179.1,290520,,,A*4C
$GPGGA,224646.00,3724.889146,N,12204.690745,W,7,,0.38,-23.51,M,0.0,M,0.0,0000*71
$GPRMC,224646.00,A,3724.889146,N,12204.690745,W,022.9,179.1,290520,,,A*43
$GPGGA,224647.00,3724.882900,N,12204.690686,W,7,,0.38,-23.49,M,0.0,M,0.0,0000*76
$GPRMC,224647.00,A,3724.882900,N,12204.690686,W,022.8,179.0,290520,,,A*4D
$GPGGA,224648.00,3724.876863,N,12204.690542,W,7,,0.38,-23.39,M,0.0,M,0.0,0000*7A
$GPRMC,224648.00,A,3724.876863,N,12204.690542,W,021.7,179.1,290520,,,A*4B
$GPGGA,224649.00,3724.871002,N,12204.690463,W,7,,0.38,-23.11,M,0.0,M,0.0,0000*7B
$GPRMC,224649.00,A,3724.871002,N,12204.690463,W,019.8,178.8,290520,,,A*4C
$GPGGA,224650.00,3724.865949,N,12204.690368,W,7,,0.38,-22.92,M,0.0,M,0.0,0000*76
$GPRMC,224650.00,A,3724.865949,N,12204.690368,W,017.5,178.6,290520,,,A*46
$GPGGA,224651.00,3724.861486,N,12204.690289,W,7,,0.38,-22.85,M,0.0,M,0.0,0000*75
$GPRMC,224651.00,A,3724.861486,N,12204.690289,W,014.9,178.5,290520,,,A*4F
$GPGGA,224652.00,3724.857741,N,12204.690463,W,7,,0.38,-22.72,M,0.0,M,0.0,0000*71
$GPRMC,224652.00,A,3724.857741,N,12204.690463,W,012.1,181.9,290520,,,A*47
$GPGGA,224653.00,3724.854729,N,12204.691039,W,7,,0.38,-22.77,M,0.0,M,0.0,0000*72
$GPRMC,224653.00,A,3724.854729,N,12204.691039,W,010.9,188.2,290520,,,A*49
$GPGGA,224654.00,3724.851765,N,12204.691658,W,7,,0.38,-22.77,M,0.0,M,0.0,0000*79
$GPRMC,224654.00,A,3724.851765,N,12204.691658,W,010.6,189.4,290520,,,A*4A
$GPGGA,224655.00,3724.848951,N,12204.692239,W,7,,0.38,-22.48,M,0.0,M,0.0,0000*75
$GPRMC,224655.00,A,3724.848951,N,12204.692239,W,010.0,187.0,290520,,,A*46
$GPGGA,224656.00,3724.846545,N,12204.692389,W,7,,0.38,-22.66,M,0.0,M,0.0,0000*77
$GPRMC,224656.00,A,3724.846545,N,12204.692389,W,008.3,183.3,290520,,,A*45
$GPGGA,224657.00,3724.844649,N,12204.692515,W,7,,0.38,-22.44,M,0.0,M,0.0,0000*78
$GPRMC,224657.00,A,3724.844649,N,12204.692515,W,005.9,180.9,290520,,,A*44
$GPGGA,224658.00,3724.843953,N,12204.692534,W,7,,0.38,-22.31,M,0.0,M,0.0,0000*75
$GPRMC,224658.00,A,3724.843953,N,12204.692534,W,000.9,180.6,290520,,,A*41
$GPGGA,224659.00,3724.843834,N,12204.692575,W,7,,0.38,-22.37,M,0.0,M,0.0,0000*77
$GPRMC,224659.00,A,3724.843834,N,12204.692575,W,000.0,000.0,290520,,,A*43
$GPGGA,224700.00,3724.843876,N,12204.692612,W,7,,0.38,-22.42,M,0.0,M,0.0,0000*7C
$GPRMC,224700.00,A,3724.843876,N,12204.692612,W,000.0,000.0,290520,,,A*4A
$GPGGA,224701.00,3724.843906,N,12204.692641,W,7,,0.38,-22.55,M,0.0,M,0.0,0000*7B
$GPRMC,224701.00,A,3724.843906,N,12204.692641,W,000.0,000.0,290520,,,A*4B
$GPGGA,224702.00,3724.843906,N,12204.692641,W,7,,0.38,-22.55,M,0.0,M,0.0,0000*78
$GPRMC,224702.00,A,3724.843906,N,12204.692641,W,000.0,000.0,290520,,,A*48
$GPGGA,224703.00,3724.843906,N,12204.692647,W,7,,0.38,-22.55,M,0.0,M,0.0,0000*7F
$GPRMC,224703.00,A,3724.843906,N,12204.692647,W,000.0,000.0,290520,,,A*4F
$GPGGA,224704.00,3724.843906,N,12204.692641,W,7,,0.38,-22.55,M,0.0,M,0.0,0000*7E
$GPRMC,224704.00,A,3724.843906,N,12204.692641,W,000.0,000.0,290520,,,A*4E
$GPGGA,224705.00,3724.843906,N,12204.692641,W,7,,0.38,-22.56,M,0.0,M,0.0,0000*7C
$GPRMC,224705.00,A,3724.843906,N,12204.692641,W,000.0,000.0,290520,,,A*4F
$GPGGA,224706.00,3724.843906,N,12204.692647,W,7,,0.38,-22.55,M,0.0,M,0.0,0000*7A
$GPRMC,224706.00,A,3724.843906,N,12204.692647,W,000.0,000.0,290520,,,A*4A
$GPGGA,224707.00,3724.843900,N,12204.692647,W,7,,0.38,-22.55,M,0.0,M,0.0,0000*7D
$GPRMC,224707.00,A,3724.843900,N,12204.692647,W,000.0,000.0,290520,,,A*4D
$GPGGA,224708.00,3724.843906,N,12204.692641,W,7,,0.38,-22.55,M,0.0,M,0.0,0000*72
$GPRMC,224708.00,A,3724.843906,N,12204.692641,W,000.0,000.0,290520,,,A*42
$GPGGA,224709.00,3724.843900,N,12204.692641,W,7,,0.38,-22.56,M,0.0,M,0.0,0000*76
$GPRMC,224709.00,A,3724.843900,N,12204.692641,W,000.0,000.0,290520,,,A*45
$GPGGA,224710.00,3724.843785,N,12204.692510,W,7,,0.38,-22.91,M,0.0,M,0.0,0000*71
$GPRMC,224710.00,A,3724.843785,N,12204.692510,W,001.1,180.2,290520,,,A*42
$GPGGA,224711.00,3724.843053,N,12204.692564,W,7,,0.38,-22.80,M,0.0,M,0.0,0000*7F
$GPRMC,224711.00,A,3724.843053,N,12204.692564,W,003.8,180.0,290520,,,A*45
$GPGGA,224712.00,3724.841380,N,12204.692629,W,7,,0.38,-22.73,M,0.0,M,0.0,0000*75
$GPRMC,224712.00,A,3724.841380,N,12204.692629,W,007.2,179.7,290520,,,A*4C
$GPGGA,224713.00,3724.838883,N,12204.692684,W,7,,0.38,-22.57,M,0.0,M,0.0,0000*73
$GPRMC,224713.00,A,3724.838883,N,12204.692684,W,009.8,180.0,290520,,,A*49
$GPGGA,224714.00,3724.835715,N,12204.692761,W,7,,0.38,-22.40,M,0.0,M,0.0,0000*75
$GPRMC,224714.00,A,3724.835715,N,12204.692761,W,012.2,180.4,290520,,,A*4D
$GPGGA,224715.00,3724.831917,N,12204.692833,W,7,,0.38,-22.17,M,0.0,M,0.0,0000*76
$GPRMC,224715.00,A,3724.831917,N,12204.692833,W,014.5,180.9,290520,,,A*40
$GPGGA,224716.00,3724.827285,N,12204.692947,W,7,,0.38,-22.11,M,0.0,M,0.0,0000*76
$GPRMC,224716.00,A,3724.827285,N,12204.692947,W,017.2,180.9,290520,,,A*42
$GPGGA,224717.00,3724.822113,N,12204.693001,W,7,,0.38,-21.73,M,0.0,M,0.0,0000*73
$GPRMC,224717.00,A,3724.822113,N,12204.693001,W,019.1,180.4,290520,,,A*40
$GPGGA,224718.00,3724.816390,N,12204.693056,W,7,,0.38,-21.50,M,0.0,M,0.0,0000*71
$GPRMC,224718.00,A,3724.816390,N,12204.693056,W,021.1,180.7,290520,,,A*4B
$GPGGA,224719.00,3724.810149,N,12204.693163,W,7,,0.38,-21.25,M,0.0,M,0.0,0000*75
$GPRMC,224719.00,A,3724.810149,N,12204.693163,W,022.9,180.7,290520,,,A*46
$GPGGA,224720.00,3724.803784,N,12204.693254,W,7,,0.38,-20.73,M,0.0,M,0.0,0000*7F
$GPRMC,224720.00,A,3724.803784,N,12204.693254,W,024.3,180.6,290520,,,A*43
$GPGGA,224721.00,3724.796643,N,12204.693319,W,7,,0.38,-20.04,M,0.0,M,0.0,0000*7F
$GPRMC,224721.00,A,3724.796643,N,12204.693319,W,025.3,180.4,290520,,,A*40
$GPGGA,224722.00,3724.789389,N,12204.693421,W,7,,0.38,-19.29,M,0.0,M,0.0,0000*78
$GPRMC,224722.00,A,3724.789389,N,12204.693421,W,026.4,180.0,290520,,,A*42
$GPGGA,224723.00,3724.781890,N,12204.693458,W,7,,0.38,-18.38,M,0.0,M,0.0,0000*7D
$GPRMC,224723.00,A,3724.781890,N,12204.693458,W,027.4,179.5,290520,,,A*44
$GPGGA,224724.00,3724.773868,N,12204.693391,W,7,,0.38,-17.37,M,0.0,M,0.0,0000*72
$GPRMC,224724.00,A,3724.773868,N,12204.693391,W,028.3,179.1,290520,,,A*47
$GPGGA,224725.00,3724.766056,N,12204.693416,W,7,,0.38,-16.68,M,0.0,M,0.0,0000*71
$GPRMC,224725.00,A,3724.766056,N,12204.693416,W,029.0,179.0,290520,,,A*4C
$GPGGA,224726.00,3724.757859,N,12204.693289,W,7,,0.38,-15.58,M,0.0,M,0.0,0000*77
$GPRMC,224726.00,A,3724.757859,N,12204.693289,W,029.9,179.1,290520,,,A*42
$GPGGA,224727.00,3724.749490,N,12204.693331,W,7,,0.38,-14.53,M,0.0,M,0.0,0000*78
$GPRMC,224727.00,A,3724.749490,N,12204.693331,W,030.2,180.1,290520,,,A*42
$GPGGA,224728.00,3724.741335,N,12204.693319,W,7,,0.38,-13.85,M,0.0,M,0.0,0000*71
$GPRMC,224728.00,A,3724.741335,N,12204.693319,W,030.0,179.7,290520,,,A*45
$GPGGA,224729.00,3724.732797,N,12204.693319,W,7,,0.38,-13.26,M,0.0,M,0.0,0000*71
$GPRMC,224729.00,A,3724.732797,N,12204.693319,W,029.8,179.9,290520,,,A*42
$GPGGA,224730.00,3724.724661,N,12204.693349,W,7,,0.38,-12.76,M,0.0,M,0.0,0000*77
$GPRMC,224730.00,A,3724.724661,N,12204.693349,W,029.2,179.9,290520,,,A*4A
$GPGGA,224731.00,3724.716597,N,12204.693398,W,7,,0.38,-12.42,M,0.0,M,0.0,0000*76
$GPRMC,224731.00,A,3724.716597,N,12204.693398,W,028.6,180.4,290520,,,A*42
$GPGGA,224732.00,3724.708486,N,12204.693493,W,7,,0.38,-12.32,M,0.0,M,0.0,0000*70
$GPRMC,224732.00,A,3724.708486,N,12204.693493,W,028.1,180.8,290520,,,A*48
$GPGGA,224733.00,3724.701118,N,12204.693554,W,7,,0.38,-12.43,M,0.0,M,0.0,0000*76
$GPRMC,224733.00,A,3724.701118,N,12204.693554,W,027.2,180.6,290520,,,A*4A
$GPGGA,224734.00,3724.693725,N,12204.693674,W,7,,0.38,-12.65,M,0.0,M,0.0,0000*76
$GPRMC,224734.00,A,3724.693725,N,12204.693674,W,026.0,181.1,290520,,,A*4B
$GPGGA,224735.00,3724.686712,N,12204.693932,W,7,,0.38,-12.96,M,0.0,M,0.0,0000*76
$GPRMC,224735.00,A,3724.686712,N,12204.693932,W,024.8,181.8,290520,,,A*44
$GPGGA,224736.00,3724.680261,N,12204.694483,W,7,,0.38,-13.40,M,0.0,M,0.0,0000*78
$GPRMC,224736.00,A,3724.680261,N,12204.694483,W,022.6,184.8,290520,,,A*4D
$GPGGA,224737.00,3724.674183,N,12204.695708,W,7,,0.38,-13.80,M,0.0,M,0.0,0000*70
$GPRMC,224737.00,A,3724.674183,N,12204.695708,W,021.5,191.1,290520,,,A*44
$GPGGA,224738.00,3724.668760,N,12204.697957,W,7,,0.38,-14.52,M,0.0,M,0.0,0000*77
$GPRMC,224738.00,A,3724.668760,N,12204.697957,W,020.3,201.5,290520,,,A*42
$GPGGA,224739.00,3724.663989,N,12204.701407,W,7,,0.38,-15.26,M,0.0,M,0.0,0000*70
$GPRMC,224739.00,A,3724.663989,N,12204.701407,W,019.9,215.0,290520,,,A*47
$GPGGA,224740.00,3724.659975,N,12204.706273,W,7,,0.38,-16.07,M,0.0,M,0.0,0000*76
$GPRMC,224740.00,A,3724.659975,N,12204.706273,W,020.3,229.2,290520,,,A*4C
$GPGGA,224741.00,3724.657228,N,12204.712405,W,7,,0.38,-17.13,M,0.0,M,0.0,0000*7C
$GPRMC,224741.00,A,3724.657228,N,12204.712405,W,020.5,246.8,290520,,,A*47
$GPGGA,224742.00,3724.656064,N,12204.719438,W,7,,0.38,-18.12,M,0.0,M,0.0,0000*7F
$GPRMC,224742.00,A,3724.656064,N,12204.719438,W,021.1,264.8,290520,,,A*4F
$GPGGA,224743.00,3724.656765,N,12204.726962,W,7,,0.38,-19.06,M,0.0,M,0.0,0000*72
$GPRMC,224743.00,A,3724.656765,N,12204.726962,W,022.0,284.1,290520,,,A*43
$GPGGA,224744.00,3724.659321,N,12204.733700,W,7,,0.38,-19.89,M,0.0,M,0.0,0000*77
$GPRMC,224744.00,A,3724.659321,N,12204.733700,W,022.5,302.7,290520,,,A*4D
$GPGGA,224745.00,3724.663546,N,12204.739765,W,7,,0.38,-20.41,M,0.0,M,0.0,0000*7F
$GPRMC,224745.00,A,3724.663546,N,12204.739765,W,022.6,317.2,290520,,,A*49
$GPGGA,224746.00,3724.668771,N,12204.744242,W,7,,0.38,-20.74,M,0.0,M,0.0,0000*7D
$GPRMC,224746.00,A,3724.668771,N,12204.744242,W,022.8,330.4,290520,,,A*40
$GPGGA,224747.00,3724.674598,N,12204.747026,W,7,,0.38,-21.05,M,0.0,M,0.0,0000*70
$GPRMC,224747.00,A,3724.674598,N,12204.747026,W,022.6,344.5,290520,,,A*46
$GPGGA,224748.00,3724.680993,N,12204.748136,W,7,,0.38,-21.25,M,0.0,M,0.0,0000*7E
$GPRMC,224748.00,A,3724.680993,N,12204.748136,W,022.5,356.9,290520,,,A*46
$GPGGA,224749.00,3724.686844,N,12204.747235,W,7,,0.38,-21.60,M,0.0,M,0.0,0000*7C
$GPRMC,224749.00,A,3724.686844,N,12204.747235,W,022.0,011.9,290520,,,A*40
$GPGGA,224750.00,3724.692316,N,12204.744242,W,7,,0.38,-21.68,M,0.0,M,0.0,0000*76
$GPRMC,224750.00,A,3724.692316,N,12204.744242,W,021.7,029.4,290520,,,A*40
$GPGGA,224751.00,3724.697062,N,12204.739286,W,7,,0.38,-21.88,M,0.0,M,0.0,0000*7E
$GPRMC,224751.00,A,3724.697062,N,12204.739286,W,022.7,045.7,290520,,,A*4C
$GPGGA,224752.00,3724.700680,N,12204.732631,W,7,,0.38,-21.79,M,0.0,M,0.0,0000*75
$GPRMC,224752.00,A,3724.700680,N,12204.732631,W,024.4,062.0,290520,,,A*4E
$GPGGA,224753.00,3724.702881,N,12204.724285,W,7,,0.38,-21.70,M,0.0,M,0.0,0000*7C
$GPRMC,224753.00,A,3724.702881,N,12204.724285,W,025.1,078.3,290520,,,A*42
$GPGGA,224754.00,3724.703103,N,12204.715634,W,7,,0.38,-21.66,M,0.0,M,0.0,0000*72
$GPRMC,224754.00,A,3724.703103,N,12204.715634,W,025.2,094.5,290520,,,A*4C
$GPGGA,224755.00,3724.701459,N,12204.707102,W,7,,0.38,-21.71,M,0.0,M,0.0,0000*7C
$GPRMC,224755.00,A,3724.701459,N,12204.707102,W,025.2,109.8,290520,,,A*4C
$GPGGA,224756.00,3724.698604,N,12204.699037,W,7,,0.38,-21.82,M,0.0,M,0.0,0000*79
$GPRMC,224756.00,A,3724.698604,N,12204.699037,W,025.8,117.6,290520,,,A*4E
$GPGGA,224757.00,3724.695388,N,12204.690961,W,7,,0.39,-22.19,M,0.0,M,0.0,0000*77
$GPRMC,224757.00,A,3724.695388,N,12204.690961,W,026.4,117.9,290520,,,A*40
$GPGGA,224758.00,3724.691937,N,12204.682610,W,7,,0.40,-22.49,M,0.0,M,0.0,0000*73
$GPRMC,224758.00,A,3724.691937,N,12204.682610,W,027.2,117.6,290520,,,A*47
$GPGGA,224759.00,3724.688344,N,12204.674161,W,7,,0.39,-22.56,M,0.0,M,0.0,0000*7C
$GPRMC,224759.00,A,3724.688344,N,12204.674161,W,027.9,117.8,290520,,,A*4D
$GPGGA,224800.00,3724.684605,N,12204.665413,W,7,,0.38,-22.68,M,0.0,M,0.0,0000*7F
$GPRMC,224800.00,A,3724.684605,N,12204.665413,W,028.7,118.2,290520,,,A*46
$GPGGA,224801.00,3724.680610,N,12204.655928,W,7,,0.38,-22.57,M,0.0,M,0.0,0000*74
$GPRMC,224801.00,A,3724.680610,N,12204.655928,W,029.9,118.4,290520,,,A*48
$GPGGA,224802.00,3724.676668,N,12204.646453,W,7,,0.38,-22.39,M,0.0,M,0.0,0000*7A
$GPRMC,224802.00,A,3724.676668,N,12204.646453,W,030.9,117.9,290520,,,A*44
$GPGGA,224803.00,3724.672588,N,12204.636728,W,7,,0.38,-22.48,M,0.0,M,0.0,0000*7C
$GPRMC,224803.00,A,3724.672588,N,12204.636728,W,032.0,117.3,290520,,,A*45
$GPGGA,224804.00,3724.668436,N,12204.626593,W,7,,0.38,-22.50,M,0.0,M,0.0,0000*7E
$GPRMC,224804.00,A,3724.668436,N,12204.626593,W,032.8,117.4,290520,,,A*41
$GPGGA,224805.00,3724.664175,N,12204.616225,W,7,,0.38,-22.15,M,0.0,M,0.0,0000*79
$GPRMC,224805.00,A,3724.664175,N,12204.616225,W,033.8,117.2,290520,,,A*40
$GPGGA,224806.00,3724.659826,N,12204.605479,W,7,,0.38,-21.74,M,0.0,M,0.0,0000*72
$GPRMC,224806.00,A,3724.659826,N,12204.605479,W,034.9,117.9,290520,,,A*42
$GPGGA,224807.00,3724.655307,N,12204.594458,W,7,,0.38,-21.79,M,0.0,M,0.0,0000*72
$GPRMC,224807.00,A,3724.655307,N,12204.594458,W,035.2,117.8,290520,,,A*44
$GPGGA,224808.00,3724.650994,N,12204.583897,W,7,,0.38,-21.85,M,0.0,M,0.0,0000*72
$GPRMC,224808.00,A,3724.650994,N,12204.583897,W,035.0,116.7,290520,,,A*4B
$GPGGA,224809.00,3724.646637,N,12204.573211,W,7,,0.38,-22.02,M,0.0,M,0.0,0000*75
$GPRMC,224809.00,A,3724.646637,N,12204.573211,W,032.7,116.6,290520,,,A*41
$GPGGA,224810.00,3724.642570,N,12204.563185,W,7,,0.38,-22.18,M,0.0,M,0.0,0000*7D
$GPRMC,224810.00,A,3724.642570,N,12204.563185,W,031.6,115.4,290520,,,A*41
$GPGGA,224811.00,3724.638669,N,12204.553124,W,7,,0.38,-22.21,M,0.0,M,0.0,0000*78
$GPRMC,224811.00,A,3724.638669,N,12204.553124,W,032.4,114.7,290520,,,A*4D
$GPGGA,224812.00,3724.634572,N,12204.542408,W,7,,0.38,-22.07,M,0.0,M,0.0,0000*71
$GPRMC,224812.00,A,3724.634572,N,12204.542408,W,033.6,114.9,290520,,,A*4D
$GPGGA,224813.00,3724.630461,N,12204.531991,W,7,,0.38,-22.01,M,0.0,M,0.0,0000*78
$GPRMC,224813.00,A,3724.630461,N,12204.531991,W,034.4,115.7,290520,,,A*48
$GPGGA,224814.00,3724.626171,N,12204.521066,W,7,,0.38,-22.05,M,0.0,M,0.0,0000*78
$GPRMC,224814.00,A,3724.626171,N,12204.521066,W,035.4,116.1,290520,,,A*48
$GPGGA,224815.00,3724.621738,N,12204.509852,W,7,,0.38,-22.04,M,0.0,M,0.0,0000*71
$GPRMC,224815.00,A,3724.621738,N,12204.509852,W,036.4,116.5,290520,,,A*47
$GPGGA,224816.00,3724.617189,N,12204.498673,W,7,,0.38,-21.95,M,0.0,M,0.0,0000*74
$GPRMC,224816.00,A,3724.617189,N,12204.498673,W,037.3,116.9,290520,,,A*43
$GPGGA,224817.00,3724.612204,N,12204.486565,W,7,,0.38,-21.76,M,0.0,M,0.0,0000*70
$GPRMC,224817.00,A,3724.612204,N,12204.486565,W,038.3,117.6,290520,,,A*4B
$GPGGA,224818.00,3724.607110,N,12204.474662,W,7,,0.38,-21.81,M,0.0,M,0.0,0000*7C
$GPRMC,224818.00,A,3724.607110,N,12204.474662,W,039.1,117.8,290520,,,A*42
$GPGGA,224819.00,3724.601763,N,12204.462398,W,7,,0.38,-21.82,M,0.0,M,0.0,0000*7D
$GPRMC,224819.00,A,3724.601763,N,12204.462398,W,040.2,118.6,290520,,,A*4C
$GPGGA,224820.00,3724.596232,N,12204.450085,W,7,,0.38,-22.15,M,0.0,M,0.0,0000*78
$GPRMC,224820.00,A,3724.596232,N,12204.450085,W,041.1,119.1,290520,,,A*40
$GPGGA,224821.00,3724.590610,N,12204.437443,W,7,,0.38,-21.86,M,0.0,M,0.0,0000*7D
$GPRMC,224821.00,A,3724.590610,N,12204.437443,W,041.9,119.3,290520,,,A*46
$GPGGA,224822.00,3724.584723,N,12204.424477,W,7,,0.38,-22.04,M,0.0,M,0.0,0000*76
$GPRMC,224822.00,A,3724.584723,N,12204.424477,W,042.9,120.0,290520,,,A*4E
$GPGGA,224823.00,3724.578807,N,12204.411409,W,7,,0.38,-22.09,M,0.0,M,0.0,0000*7F
$GPRMC,224823.00,A,3724.578807,N,12204.411409,W,043.8,120.0,290520,,,A*4A
$GPGGA,224824.00,3724.572736,N,12204.397940,W,7,,0.38,-21.78,M,0.0,M,0.0,0000*73
$GPRMC,224824.00,A,3724.572736,N,12204.397940,W,044.7,119.7,290520,,,A*46
$GPGGA,224825.00,3724.566339,N,12204.384170,W,7,,0.38,-21.30,M,0.0,M,0.0,0000*79
$GPRMC,224825.00,A,3724.566339,N,12204.384170,W,045.6,120.0,290520,,,A*4D
$GPGGA,224826.00,3724.560088,N,12204.370075,W,7,,0.38,-20.60,M,0.0,M,0.0,0000*7E
$GPRMC,224826.00,A,3724.560088,N,12204.370075,W,046.6,119.2,290520,,,A*45
$GPGGA,224827.00,3724.553728,N,12204.355772,W,7,,0.38,-19.91,M,0.0,M,0.0,0000*71
$GPRMC,224827.00,A,3724.553728,N,12204.355772,W,047.3,119.1,290520,,,A*49
$GPGGA,224828.00,3724.547278,N,12204.341240,W,7,,0.38,-18.74,M,0.0,M,0.0,0000*70
$GPRMC,224828.00,A,3724.547278,N,12204.341240,W,047.6,119.1,290520,,,A*47
$GPGGA,224829.00,3724.540695,N,12204.326804,W,7,,0.38,-17.51,M,0.0,M,0.0,0000*72
$GPRMC,224829.00,A,3724.540695,N,12204.326804,W,047.8,119.8,290520,,,A*4A
$GPGGA,224830.00,3724.533975,N,12204.312476,W,7,,0.38,-16.13,M,0.0,M,0.0,0000*76
$GPRMC,224830.00,A,3724.533975,N,12204.312476,W,048.0,121.2,290520,,,A*4F
$GPGGA,224831.00,3724.526704,N,12204.298184,W,7,,0.38,-15.03,M,0.0,M,0.0,0000*72
$GPRMC,224831.00,A,3724.526704,N,12204.298184,W,048.3,123.5,290520,,,A*4F
$GPGGA,224832.00,3724.519089,N,12204.284954,W,7,,0.38,-13.90,M,0.0,M,0.0,0000*7B
$GPRMC,224832.00,A,3724.519089,N,12204.284954,W,048.6,126.9,290520,,,A*46
$GPGGA,224833.00,3724.510168,N,12204.271531,W,7,,0.38,-12.88,M,0.0,M,0.0,0000*70
$GPRMC,224833.00,A,3724.510168,N,12204.271531,W,048.9,131.7,290520,,,A*42
$GPGGA,224834.00,3724.500561,N,12204.259297,W,7,,0.38,-11.83,M,0.0,M,0.0,0000*72
$GPRMC,224834.00,A,3724.500561,N,12204.259297,W,049.1,136.7,290520,,,A*46
$GPGGA,224835.00,3724.490176,N,12204.248114,W,7,,0.38,-10.93,M,0.0,M,0.0,0000*71
$GPRMC,224835.00,A,3724.490176,N,12204.248114,W,049.5,141.0,290520,,,A*46
$GPGGA,224836.00,3724.478644,N,12204.237746,W,7,,0.38,-10.25,M,0.0,M,0.0,0000*76
$GPRMC,224836.00,A,3724.478644,N,12204.237746,W,049.7,145.7,290520,,,A*4D
$GPGGA,224837.00,3724.467063,N,12204.229111,W,7,,0.38,-9.60,M,0.0,M,0.0,0000*48
$GPRMC,224837.00,A,3724.467063,N,12204.229111,W,049.8,150.9,290520,,,A*4F
$GPGGA,224838.00,3724.454506,N,12204.221504,W,7,,0.38,-9.47,M,0.0,M,0.0,0000*4C
$GPRMC,224838.00,A,3724.454506,N,12204.221504,W,050.5,155.5,290520,,,A*42
$GPGGA,224839.00,3724.441336,N,12204.215072,W,7,,0.38,-8.90,M,0.0,M,0.0,0000*44
$GPRMC,224839.00,A,3724.441336,N,12204.215072,W,051.2,160.5,290520,,,A*41
$GPGGA,224840.00,3724.427859,N,12204.210133,W,7,,0.38,-8.78,M,0.0,M,0.0,0000*4F
$GPRMC,224840.00,A,3724.427859,N,12204.210133,W,052.1,165.7,290520,,,A*4B
$GPGGA,224841.00,3724.413052,N,12204.206557,W,7,,0.38,-8.86,M,0.0,M,0.0,0000*4A
$GPRMC,224841.00,A,3724.413052,N,12204.206557,W,053.1,170.9,290520,,,A*44
$GPGGA,224842.00,3724.398322,N,12204.204530,W,7,,0.38,-8.43,M,0.0,M,0.0,0000*43
$GPRMC,224842.00,A,3724.398322,N,12204.204530,W,053.9,175.9,290520,,,A*49
$GPGGA,224843.00,3724.383112,N,12204.203564,W,7,,0.38,-8.35,M,0.0,M,0.0,0000*4E
$GPRMC,224843.00,A,3724.383112,N,12204.203564,W,054.7,177.8,290520,,,A*4F
$GPGGA,224844.00,3724.367794,N,12204.203204,W,7,,0.38,-8.75,M,0.0,M,0.0,0000*4E
$GPRMC,224844.00,A,3724.367794,N,12204.203204,W,055.6,178.8,290520,,,A*44
$GPGGA,224845.00,3724.352236,N,12204.202946,W,7,,0.38,-9.55,M,0.0,M,0.0,0000*4B
$GPRMC,224845.00,A,3724.352236,N,12204.202946,W,056.6,179.1,290520,,,A*49
$GPGGA,224846.00,3724.336162,N,12204.202676,W,7,,0.38,-10.34,M,0.0,M,0.0,0000*7B
$GPRMC,224846.00,A,3724.336162,N,12204.202676,W,057.7,179.0,290520,,,A*47
$GPGGA,224847.00,3724.319979,N,12204.202304,W,7,,0.38,-10.73,M,0.0,M,0.0,0000*76
$GPRMC,224847.00,A,3724.319979,N,12204.202304,W,058.8,178.9,290520,,,A*41
$GPGGA,224848.00,3724.303485,N,12204.201998,W,7,,0.38,-11.02,M,0.0,M,0.0,0000*77
$GPRMC,224848.00,A,3724.303485,N,12204.201998,W,059.7,179.2,290520,,,A*43
$GPGGA,224849.00,3724.286680,N,12204.201733,W,7,,0.38,-11.27,M,0.0,M,0.0,0000*75
$GPRMC,224849.00,A,3724.286680,N,12204.201733,W,060.2,179.6,290520,,,A*4D
$GPGGA,224850.00,3724.269993,N,12204.201751,W,7,,0.38,-11.41,M,0.0,M,0.0,0000*75
$GPRMC,224850.00,A,3724.269993,N,12204.201751,W,060.5,180.3,290520,,,A*49
$GPGGA,224851.00,3724.253175,N,12204.201914,W,7,,0.38,-11.33,M,0.0,M,0.0,0000*77
$GPRMC,224851.00,A,3724.253175,N,12204.201914,W,060.6,180.6,290520,,,A*48
$GPGGA,224852.00,3724.236190,N,12204.202160,W,7,,0.38,-11.40,M,0.0,M,0.0,0000*70
$GPRMC,224852.00,A,3724.236190,N,12204.202160,W,060.7,180.6,290520,,,A*4A
$GPGGA,224853.00,3724.219306,N,12204.202369,W,7,,0.38,-11.23,M,0.0,M,0.0,0000*7F
$GPRMC,224853.00,A,3724.219306,N,12204.202369,W,060.9,180.3,290520,,,A*4B
$GPGGA,224854.00,3724.202380,N,12204.202423,W,7,,0.38,-11.02,M,0.0,M,0.0,0000*76
$GPRMC,224854.00,A,3724.202380,N,12204.202423,W,061.3,180.6,290520,,,A*4F
$GPGGA,224855.00,3724.185177,N,12204.202483,W,7,,0.38,-10.62,M,0.0,M,0.0,0000*7C
$GPRMC,224855.00,A,3724.185177,N,12204.202483,W,061.4,180.4,290520,,,A*47
$GPGGA,224856.00,3724.168666,N,12204.202718,W,7,,0.38,-10.32,M,0.0,M,0.0,0000*7F
$GPRMC,224856.00,A,3724.168666,N,12204.202718,W,061.5,180.6,290520,,,A*42
$GPGGA,224857.00,3724.151073,N,12204.202813,W,7,,0.38,-10.35,M,0.0,M,0.0,0000*75
$GPRMC,224857.00,A,3724.151073,N,12204.202813,W,061.7,180.5,290520,,,A*4E
$GPGGA,224858.00,3724.133889,N,12204.202957,W,7,,0.38,-10.53,M,0.0,M,0.0,0000*72
$GPRMC,224858.00,A,3724.133889,N,12204.202957,W,061.9,180.5,290520,,,A*47
$GPGGA,224859.00,3724.116472,N,12204.203143,W,7,,0.38,-10.58,M,0.0,M,0.0,0000*7B
$GPRMC,224859.00,A,3724.116472,N,12204.203143,W,062.2,180.5,290520,,,A*4D
$GPGGA,224900.00,3724.098651,N,12204.203359,W,7,,0.38,-10.98,M,0.0,M,0.0,0000*77
$GPRMC,224900.00,A,3724.098651,N,12204.203359,W,062.5,180.8,290520,,,A*47
$GPGGA,224901.00,3724.081785,N,12204.203269,W,7,,0.38,-11.19,M,0.0,M,0.0,0000*7C
$GPRMC,224901.00,A,3724.081785,N,12204.203269,W,062.9,179.5,290520,,,A*43
$GPGGA,224902.00,3724.064061,N,12204.203204,W,7,,0.38,-11.59,M,0.0,M,0.0,0000*76
$GPRMC,224902.00,A,3724.064061,N,12204.203204,W,063.2,179.7,290520,,,A*45
$GPGGA,224903.00,3724.046488,N,12204.202885,W,7,,0.38,-11.96,M,0.0,M,0.0,0000*75
$GPRMC,224903.00,A,3724.046488,N,12204.202885,W,063.6,178.5,290520,,,A*42
$GPGGA,224904.00,3724.028745,N,12204.201589,W,7,,0.38,-12.47,M,0.0,M,0.0,0000*75
$GPRMC,224904.00,A,3724.028745,N,12204.201589,W,064.1,175.8,290520,,,A*4D
$GPGGA,224905.00,3724.010770,N,12204.199388,W,7,,0.38,-12.86,M,0.0,M,0.0,0000*71
$GPRMC,224905.00,A,3724.010770,N,12204.199388,W,064.5,173.7,290520,,,A*49
$GPGGA,224906.00,3723.992944,N,12204.196256,W,7,,0.38,-13.28,M,0.0,M,0.0,0000*77
$GPRMC,224906.00,A,3723.992944,N,12204.196256,W,065.0,170.8,290520,,,A*42
$GPGGA,224907.00,3723.974973,N,12204.191983,W,7,,0.38,-13.69,M,0.0,M,0.0,0000*7B
$GPRMC,224907.00,A,3723.974973,N,12204.191983,W,065.5,168.6,290520,,,A*49
$GPGGA,224908.00,3723.957099,N,12204.187310,W,7,,0.38,-13.93,M,0.0,M,0.0,0000*7A
$GPRMC,224908.00,A,3723.957099,N,12204.187310,W,066.0,168.1,290520,,,A*4C
$GPGGA,224909.00,3723.939340,N,12204.182389,W,7,,0.38,-13.89,M,0.0,M,0.0,0000*7A
$GPRMC,224909.00,A,3723.939340,N,12204.182389,W,066.0,167.7,290520,,,A*4E
$GPGGA,224910.00,3723.921478,N,12204.177380,W,7,,0.39,-13.57,M,0.0,M,0.0,0000*76
$GPRMC,224910.00,A,3723.921478,N,12204.177380,W,066.0,167.5,290520,,,A*42
$GPGGA,224911.00,3723.903171,N,12204.172291,W,7,,0.38,-12.68,M,0.0,M,0.0,0000*73
$GPRMC,224911.00,A,3723.903171,N,12204.172291,W,066.4,167.6,290520,,,A*4C
$GPGGA,224912.00,3723.885255,N,12204.167456,W,7,,0.38,-12.21,M,0.0,M,0.0,0000*7E
$GPRMC,224912.00,A,3723.885255,N,12204.167456,W,066.2,167.9,290520,,,A*45
$GPGGA,224913.00,3723.867292,N,12204.162613,W,7,,0.38,-11.71,M,0.0,M,0.0,0000*78
$GPRMC,224913.00,A,3723.867292,N,12204.162613,W,066.1,168.0,290520,,,A*40
$GPGGA,224914.00,3723.849244,N,12204.157778,W,7,,0.38,-11.39,M,0.0,M,0.0,0000*7E
$GPRMC,224914.00,A,3723.849244,N,12204.157778,W,065.8,167.9,290520,,,A*46
$GPGGA,224915.00,3723.831430,N,12204.152924,W,7,,0.38,-10.79,M,0.0,M,0.0,0000*72
$GPRMC,224915.00,A,3723.831430,N,12204.152924,W,065.6,167.8,290520,,,A*40
$GPGGA,224916.00,3723.813526,N,12204.148172,W,7,,0.38,-10.33,M,0.0,M,0.0,0000*79
$GPRMC,224916.00,A,3723.813526,N,12204.148172,W,065.5,167.9,290520,,,A*47
$GPGGA,224917.00,3723.795790,N,12204.143474,W,7,,0.38,-9.97,M,0.0,M,0.0,0000*48
$GPRMC,224917.00,A,3723.795790,N,12204.143474,W,065.4,168.1,290520,,,A*46
$GPGGA,224918.00,3723.778077,N,12204.138734,W,7,,0.38,-9.50,M,0.0,M,0.0,0000*4A
$GPRMC,224918.00,A,3723.778077,N,12204.138734,W,065.3,168.0,290520,,,A*49
$GPGGA,224919.00,3723.760372,N,12204.134059,W,7,,0.38,-9.17,M,0.0,M,0.0,0000*47
$GPRMC,224919.00,A,3723.760372,N,12204.134059,W,065.1,168.1,290520,,,A*44
$GPGGA,224920.00,3723.743127,N,12204.129602,W,7,,0.38,-8.76,M,0.0,M,0.0,0000*4C
$GPRMC,224920.00,A,3723.743127,N,12204.129602,W,064.9,168.8,290520,,,A*49
$GPGGA,224921.00,3723.724942,N,12204.125269,W,7,,0.38,-8.12,M,0.0,M,0.0,0000*40
$GPRMC,224921.00,A,3723.724942,N,12204.125269,W,064.6,169.7,290520,,,A*46
$GPGGA,224922.00,3723.707199,N,12204.121489,W,7,,0.38,-7.51,M,0.0,M,0.0,0000*48
$GPRMC,224922.00,A,3723.707199,N,12204.121489,W,064.3,170.9,290520,,,A*45
$GPGGA,224923.00,3723.689590,N,12204.118352,W,7,,0.38,-6.95,M,0.0,M,0.0,0000*41
$GPRMC,224923.00,A,3723.689590,N,12204.118352,W,064.0,172.7,290520,,,A*4A
$GPGGA,224924.00,3723.671572,N,12204.115903,W,7,,0.38,-5.72,M,0.0,M,0.0,0000*44
$GPRMC,224924.00,A,3723.671572,N,12204.115903,W,063.3,173.5,290520,,,A*42
$GPGGA,224925.00,3723.654741,N,12204.114044,W,7,,0.38,-4.47,M,0.0,M,0.0,0000*4C
$GPRMC,224925.00,A,3723.654741,N,12204.114044,W,062.7,175.4,290520,,,A*4F
$GPGGA,224926.00,3723.637276,N,12204.112849,W,7,,0.38,-3.17,M,0.0,M,0.0,0000*4A
$GPRMC,224926.00,A,3723.637276,N,12204.112849,W,062.4,177.0,290520,,,A*4E
$GPGGA,224927.00,3723.620098,N,12204.112141,W,7,,0.38,-1.81,M,0.0,M,0.0,0000*43
$GPRMC,224927.00,A,3723.620098,N,12204.112141,W,061.7,178.3,290520,,,A*46
$GPGGA,224928.00,3723.603070,N,12204.112064,W,7,,0.38,-0.75,M,0.0,M,0.0,0000*47
$GPRMC,224928.00,A,3723.603070,N,12204.112064,W,061.3,180.2,290520,,,A*4A
$GPGGA,224929.00,3723.585975,N,12204.112478,W,7,,0.38,0.41,M,0.0,M,0.0,0000*64
$GPRMC,224929.00,A,3723.585975,N,12204.112478,W,060.9,180.7,290520,,,A*4D
$GPGGA,224930.00,3723.569242,N,12204.113377,W,7,,0.38,1.55,M,0.0,M,0.0,0000*6C
$GPRMC,224930.00,A,3723.569242,N,12204.113377,W,060.3,182.1,290520,,,A*4F
$GPGGA,224931.00,3723.552633,N,12204.114529,W,7,,0.38,2.47,M,0.0,M,0.0,0000*6D
$GPRMC,224931.00,A,3723.552633,N,12204.114529,W,059.9,183.0,290520,,,A*4E
$GPGGA,224932.00,3723.535947,N,12204.115970,W,7,,0.38,3.17,M,0.0,M,0.0,0000*66
$GPRMC,224932.00,A,3723.535947,N,12204.115970,W,059.5,183.8,290520,,,A*45
$GPGGA,224933.00,3723.519543,N,12204.117457,W,7,,0.38,3.36,M,0.0,M,0.0,0000*68
$GPRMC,224933.00,A,3723.519543,N,12204.117457,W,059.2,183.8,290520,,,A*4F
$GPGGA,224934.00,3723.503206,N,12204.118874,W,7,,0.38,3.86,M,0.0,M,0.0,0000*6B
$GPRMC,224934.00,A,3723.503206,N,12204.118874,W,059.1,184.2,290520,,,A*49
$GPGGA,224935.00,3723.486669,N,12204.120470,W,7,,0.38,4.19,M,0.0,M,0.0,0000*69
$GPRMC,224935.00,A,3723.486669,N,12204.120470,W,059.2,184.5,290520,,,A*4E
$GPGGA,224936.00,3723.470308,N,12204.122053,W,7,,0.38,4.23,M,0.0,M,0.0,0000*6F
$GPRMC,224936.00,A,3723.470308,N,12204.122053,W,059.1,184.5,290520,,,A*42
$GPGGA,224937.00,3723.454017,N,12204.123596,W,7,,0.38,3.92,M,0.0,M,0.0,0000*65
$GPRMC,224937.00,A,3723.454017,N,12204.123596,W,058.9,184.4,290520,,,A*4D
$GPGGA,224938.00,3723.437607,N,12204.125222,W,7,,0.38,3.57,M,0.0,M,0.0,0000*6F
$GPRMC,224938.00,A,3723.437607,N,12204.125222,W,058.6,184.9,290520,,,A*4C
$GPGGA,224939.00,3723.421426,N,12204.126890,W,7,,0.38,3.23,M,0.0,M,0.0,0000*6B
$GPRMC,224939.00,A,3723.421426,N,12204.126890,W,058.5,184.7,290520,,,A*46
$GPGGA,224940.00,3723.404769,N,12204.128557,W,7,,0.38,2.78,M,0.0,M,0.0,0000*6D
$GPRMC,224940.00,A,3723.404769,N,12204.128557,W,058.5,184.6,290520,,,A*4E
$GPGGA,224941.00,3723.388941,N,12204.129967,W,7,,0.38,2.55,M,0.0,M,0.0,0000*6A
$GPRMC,224941.00,A,3723.388941,N,12204.129967,W,058.5,184.4,290520,,,A*44
$GPGGA,224942.00,3723.372712,N,12204.131485,W,7,,0.38,2.03,M,0.0,M,0.0,0000*6F
$GPRMC,224942.00,A,3723.372712,N,12204.131485,W,058.7,184.2,290520,,,A*46
$GPGGA,224943.00,3723.356482,N,12204.132974,W,7,,0.38,1.48,M,0.0,M,0.0,0000*6E
$GPRMC,224943.00,A,3723.356482,N,12204.132974,W,058.8,184.3,290520,,,A*45
$GPGGA,224944.00,3723.340474,N,12204.134215,W,7,,0.38,0.80,M,0.0,M,0.0,0000*68
$GPRMC,224944.00,A,3723.340474,N,12204.134215,W,059.1,183.2,290520,,,A*48
$GPGGA,224945.00,3723.323536,N,12204.135014,W,7,,0.38,0.26,M,0.0,M,0.0,0000*65
$GPRMC,224945.00,A,3723.323536,N,12204.135014,W,059.2,181.4,290520,,,A*4E
$GPGGA,224946.00,3723.306963,N,12204.135044,W,7,,0.38,-0.30,M,0.0,M,0.0,0000*42
$GPRMC,224946.00,A,3723.306963,N,12204.135044,W,059.2,179.5,290520,,,A*45
$GPGGA,224947.00,3723.290602,N,12204.134377,W,7,,0.38,-0.31,M,0.0,M,0.0,0000*46
$GPRMC,224947.00,A,3723.290602,N,12204.134377,W,059.0,177.8,290520,,,A*41
$GPGGA,224948.00,3723.273657,N,12204.133267,W,7,,0.40,-0.36,M,0.0,M,0.0,0000*4B
$GPRMC,224948.00,A,3723.273657,N,12204.133267,W,059.4,176.6,290520,,,A*4F
$GPGGA,224949.00,3723.257673,N,12204.131863,W,7,,0.38,-0.33,M,0.0,M,0.0,0000*4C
$GPRMC,224949.00,A,3723.257673,N,12204.131863,W,059.7,175.8,290520,,,A*4C
$GPGGA,224950.00,3723.240808,N,12204.130064,W,7,,0.38,0.02,M,0.0,M,0.0,0000*61
$GPRMC,224950.00,A,3723.240808,N,12204.130064,W,060.1,175.2,290520,,,A*48
$GPGGA,224951.00,3723.224158,N,12204.128269,W,7,,0.38,0.60,M,0.0,M,0.0,0000*6C
$GPRMC,224951.00,A,3723.224158,N,12204.128269,W,060.1,175.1,290520,,,A*42
$GPGGA,224952.00,3723.207591,N,12204.126416,W,7,,0.38,1.15,M,0.0,M,0.0,0000*6C
$GPRMC,224952.00,A,3723.207591,N,12204.126416,W,060.1,175.0,290520,,,A*40
$GPGGA,224953.00,3723.190864,N,12204.124490,W,7,,0.38,1.96,M,0.0,M,0.0,0000*60
$GPRMC,224953.00,A,3723.190864,N,12204.124490,W,059.9,175.1,290520,,,A*44
$GPGGA,224954.00,3723.174334,N,12204.122648,W,7,,0.38,2.62,M,0.0,M,0.0,0000*6A
$GPRMC,224954.00,A,3723.174334,N,12204.122648,W,059.8,175.0,290520,,,A*46
$GPGGA,224955.00,3723.157882,N,12204.120824,W,7,,0.38,3.29,M,0.0,M,0.0,0000*64
$GPRMC,224955.00,A,3723.157882,N,12204.120824,W,059.5,175.1,290520,,,A*4A
$GPGGA,224956.00,3723.141358,N,12204.118981,W,7,,0.38,3.92,M,0.0,M,0.0,0000*69
$GPRMC,224956.00,A,3723.141358,N,12204.118981,W,059.3,175.1,290520,,,A*41
$GPGGA,224957.00,3723.125050,N,12204.117043,W,7,,0.38,4.59,M,0.0,M,0.0,0000*69
$GPRMC,224957.00,A,3723.125050,N,12204.117043,W,058.9,174.8,290520,,,A*42
$GPGGA,224958.00,3723.108850,N,12204.115189,W,7,,0.38,5.37,M,0.0,M,0.0,0000*6D
$GPRMC,224958.00,A,3723.108850,N,12204.115189,W,058.6,174.8,290520,,,A*40
$GPGGA,224959.00,3723.092523,N,12204.113305,W,7,,0.38,6.28,M,0.0,M,0.0,0000*6A
$GPRMC,224959.00,A,3723.092523,N,12204.113305,W,058.4,174.9,290520,,,A*49
$GPGGA,225000.00,3723.076372,N,12204.111469,W,7,,0.38,6.95,M,0.0,M,0.0,0000*6F
$GPRMC,225000.00,A,3723.076372,N,12204.111469,W,058.3,174.8,290520,,,A*4C
$GPGGA,225001.00,3723.060381,N,12204.109669,W,7,,0.38,7.36,M,0.0,M,0.0,0000*66
$GPRMC,225001.00,A,3723.060381,N,12204.109669,W,057.8,174.7,290520,,,A*46
$GPGGA,225002.00,3723.044397,N,12204.107821,W,7,,0.38,7.86,M,0.0,M,0.0,0000*63
$GPRMC,225002.00,A,3723.044397,N,12204.107821,W,057.1,174.7,290520,,,A*41
$GPGGA,225003.00,3723.028804,N,12204.106148,W,7,,0.38,7.72,M,0.0,M,0.0,0000*65
$GPRMC,225003.00,A,3723.028804,N,12204.106148,W,056.0,175.5,290520,,,A*4F
$GPGGA,225004.00,3723.012927,N,12204.104443,W,7,,0.38,7.80,M,0.0,M,0.0,0000*6A
$GPRMC,225004.00,A,3723.012927,N,12204.104443,W,055.6,175.1,290520,,,A*4C
$GPGGA,225005.00,3722.997891,N,12204.102847,W,7,,0.38,7.74,M,0.0,M,0.0,0000*67
$GPRMC,225005.00,A,3722.997891,N,12204.102847,W,055.7,175.0,290520,,,A*4A
$GPGGA,225006.00,3722.982495,N,12204.101180,W,7,,0.38,7.63,M,0.0,M,0.0,0000*6F
$GPRMC,225006.00,A,3722.982495,N,12204.101180,W,055.8,175.1,290520,,,A*4A
$GPGGA,225007.00,3722.967076,N,12204.099512,W,7,,0.38,7.60,M,0.0,M,0.0,0000*60
$GPRMC,225007.00,A,3722.967076,N,12204.099512,W,055.8,175.1,290520,,,A*46
$GPGGA,225008.00,3722.951997,N,12204.097886,W,7,,0.38,7.51,M,0.0,M,0.0,0000*60
$GPRMC,225008.00,A,3722.951997,N,12204.097886,W,055.9,175.5,290520,,,A*41
$GPGGA,225009.00,3722.936068,N,12204.096187,W,7,,0.38,7.32,M,0.0,M,0.0,0000*65
$GPRMC,225009.00,A,3722.936068,N,12204.096187,W,055.9,175.1,290520,,,A*45
$GPGGA,225010.00,3722.920606,N,12204.094507,W,7,,0.39,7.22,M,0.0,M,0.0,0000*6A
$GPRMC,225010.00,A,3722.920606,N,12204.094507,W,056.0,174.9,290520,,,A*49
$GPGGA,225011.00,3722.904916,N,12204.092809,W,7,,0.38,7.13,M,0.0,M,0.0,0000*65
$GPRMC,225011.00,A,3722.904916,N,12204.092809,W,056.2,174.8,290520,,,A*46
$GPGGA,225012.00,3722.888847,N,12204.090908,W,7,,0.38,6.95,M,0.0,M,0.0,0000*6B
$GPRMC,225012.00,A,3722.888847,N,12204.090908,W,056.4,174.6,290520,,,A*4F
$GPGGA,225013.00,3722.873716,N,12204.089065,W,7,,0.38,6.96,M,0.0,M,0.0,0000*6C
$GPRMC,225013.00,A,3722.873716,N,12204.089065,W,056.6,174.7,290520,,,A*48
$GPGGA,225014.00,3722.857881,N,12204.087248,W,7,,0.38,6.84,M,0.0,M,0.0,0000*6C
$GPRMC,225014.00,A,3722.857881,N,12204.087248,W,056.8,174.7,290520,,,A*45
$GPGGA,225015.00,3722.842174,N,12204.085538,W,7,,0.38,6.74,M,0.0,M,0.0,0000*67
$GPRMC,225015.00,A,3722.842174,N,12204.085538,W,056.8,174.9,290520,,,A*4F
$GPGGA,225016.00,3722.826484,N,12204.083809,W,7,,0.38,6.70,M,0.0,M,0.0,0000*61
$GPRMC,225016.00,A,3722.826484,N,12204.083809,W,056.9,175.1,290520,,,A*45
$GPGGA,225017.00,3722.810548,N,12204.082094,W,7,,0.38,6.55,M,0.0,M,0.0,0000*6E
$GPRMC,225017.00,A,3722.810548,N,12204.082094,W,057.2,175.2,290520,,,A*44
$GPGGA,225018.00,3722.794731,N,12204.080324,W,7,,0.38,6.00,M,0.0,M,0.0,0000*64
$GPRMC,225018.00,A,3722.794731,N,12204.080324,W,057.5,174.9,290520,,,A*43
$GPGGA,225019.00,3722.778796,N,12204.078547,W,7,,0.38,6.09,M,0.0,M,0.0,0000*67
$GPRMC,225019.00,A,3722.778796,N,12204.078547,W,057.8,175.3,290520,,,A*4F
$GPGGA,225020.00,3722.762661,N,12204.076904,W,7,,0.38,6.07,M,0.0,M,0.0,0000*64
$GPRMC,225020.00,A,3722.762661,N,12204.076904,W,058.1,175.3,290520,,,A*44
$GPGGA,225021.00,3722.746569,N,12204.075259,W,7,,0.38,5.87,M,0.0,M,0.0,0000*63
$GPRMC,225021.00,A,3722.746569,N,12204.075259,W,058.2,175.2,290520,,,A*4A
$GPGGA,225022.00,3722.730507,N,12204.073525,W,7,,0.38,5.69,M,0.0,M,0.0,0000*63
$GPRMC,225022.00,A,3722.730507,N,12204.073525,W,058.2,175.1,290520,,,A*49
$GPGGA,225023.00,3722.714200,N,12204.071773,W,7,,0.38,5.64,M,0.0,M,0.0,0000*6A
$GPRMC,225023.00,A,3722.714200,N,12204.071773,W,058.6,175.3,290520,,,A*4B
$GPGGA,225024.00,3722.698443,N,12204.070316,W,7,,0.39,5.54,M,0.0,M,0.0,0000*6D
$GPRMC,225024.00,A,3722.698443,N,12204.070316,W,058.9,176.0,290520,,,A*41
$GPGGA,225025.00,3722.681584,N,12204.069092,W,7,,0.40,5.75,M,0.0,M,0.0,0000*64
$GPRMC,225025.00,A,3722.681584,N,12204.069092,W,059.1,177.3,290520,,,A*4E
$GPGGA,225026.00,3722.665023,N,12204.068539,W,7,,0.39,6.30,M,0.0,M,0.0,0000*6C
$GPRMC,225026.00,A,3722.665023,N,12204.068539,W,059.2,179.4,290520,,,A*40
$GPGGA,225027.00,3722.648524,N,12204.068767,W,7,,0.38,6.89,M,0.0,M,0.0,0000*6A
$GPRMC,225027.00,A,3722.648524,N,12204.068767,W,059.2,181.6,290520,,,A*40
$GPGGA,225028.00,3722.631598,N,12204.069680,W,7,,0.38,7.31,M,0.0,M,0.0,0000*67
$GPRMC,225028.00,A,3722.631598,N,12204.069680,W,059.2,183.2,290520,,,A*49
$GPGGA,225029.00,3722.615643,N,12204.071179,W,7,,0.38,8.05,M,0.0,M,0.0,0000*65
$GPRMC,225029.00,A,3722.615643,N,12204.071179,W,059.0,184.8,290520,,,A*4C
$GPGGA,225030.00,3722.599414,N,12204.073160,W,7,,0.38,8.61,M,0.0,M,0.0,0000*62
$GPRMC,225030.00,A,3722.599414,N,12204.073160,W,058.9,185.7,290520,,,A*4F
$GPGGA,225031.00,3722.583190,N,12204.075266,W,7,,0.38,8.98,M,0.0,M,0.0,0000*64
$GPRMC,225031.00,A,3722.583190,N,12204.075266,W,058.9,186.0,290520,,,A*4B
$GPGGA,225032.00,3722.567272,N,12204.077420,W,7,,0.38,9.67,M,0.0,M,0.0,0000*65
$GPRMC,225032.00,A,3722.567272,N,12204.077420,W,059.0,185.9,290520,,,A*49
$GPGGA,225033.00,3722.550454,N,12204.079441,W,7,,0.38,10.38,M,0.0,M,0.0,0000*59
$GPRMC,225033.00,A,3722.550454,N,12204.079441,W,059.1,184.8,290520,,,A*46
$GPGGA,225034.00,3722.534122,N,12204.080786,W,7,,0.38,11.10,M,0.0,M,0.0,0000*5D
$GPRMC,225034.00,A,3722.534122,N,12204.080786,W,059.1,183.4,290520,,,A*42
$GPGGA,225035.00,3722.517603,N,12204.081704,W,7,,0.38,11.59,M,0.0,M,0.0,0000*5F
$GPRMC,225035.00,A,3722.517603,N,12204.081704,W,059.1,182.4,290520,,,A*4C
$GPGGA,225036.00,3722.500594,N,12204.082178,W,7,,0.38,12.14,M,0.0,M,0.0,0000*53
$GPRMC,225036.00,A,3722.500594,N,12204.082178,W,059.3,180.8,290520,,,A*46
$GPGGA,225037.00,3722.484646,N,12204.081860,W,7,,0.38,12.66,M,0.0,M,0.0,0000*55
$GPRMC,225037.00,A,3722.484646,N,12204.081860,W,059.5,178.4,290520,,,A*48
$GPGGA,225038.00,3722.468056,N,12204.080761,W,7,,0.38,13.03,M,0.0,M,0.0,0000*52
$GPRMC,225038.00,A,3722.468056,N,12204.080761,W,059.3,176.0,290520,,,A*41
$GPGGA,225039.00,3722.451729,N,12204.078656,W,7,,0.38,13.34,M,0.0,M,0.0,0000*50
$GPRMC,225039.00,A,3722.451729,N,12204.078656,W,059.0,173.3,290520,,,A*42
$GPGGA,225040.00,3722.435620,N,12204.075698,W,7,,0.38,13.62,M,0.0,M,0.0,0000*58
$GPRMC,225040.00,A,3722.435620,N,12204.075698,W,058.8,170.7,290520,,,A*47
$GPGGA,225041.00,3722.419545,N,12204.071653,W,7,,0.38,13.80,M,0.0,M,0.0,0000*58
$GPRMC,225041.00,A,3722.419545,N,12204.071653,W,058.6,167.4,290520,,,A*40
$GPGGA,225042.00,3722.403802,N,12204.066548,W,7,,0.38,13.70,M,0.0,M,0.0,0000*5E
$GPRMC,225042.00,A,3722.403802,N,12204.066548,W,058.5,164.3,290520,,,A*4E
$GPGGA,225043.00,3722.388202,N,12204.060494,W,7,,0.38,13.98,M,0.0,M,0.0,0000*51
$GPRMC,225043.00,A,3722.388202,N,12204.060494,W,058.5,162.1,290520,,,A*43
$GPGGA,225044.00,3722.372878,N,12204.053647,W,7,,0.38,14.27,M,0.0,M,0.0,0000*5B
$GPRMC,225044.00,A,3722.372878,N,12204.053647,W,058.7,159.3,290520,,,A*42
$GPGGA,225045.00,3722.357812,N,12204.045877,W,7,,0.38,14.44,M,0.0,M,0.0,0000*5E
$GPRMC,225045.00,A,3722.357812,N,12204.045877,W,058.9,156.5,290520,,,A*45
$GPGGA,225046.00,3722.342901,N,12204.037345,W,7,,0.38,14.08,M,0.0,M,0.0,0000*5D
$GPRMC,225046.00,A,3722.342901,N,12204.037345,W,059.2,154.9,290520,,,A*4A
$GPGGA,225047.00,3722.327835,N,12204.028232,W,7,,0.38,14.02,M,0.0,M,0.0,0000*5C
$GPRMC,225047.00,A,3722.327835,N,12204.028232,W,059.7,154.3,290520,,,A*4E
$GPGGA,225048.00,3722.313321,N,12204.019447,W,7,,0.38,14.07,M,0.0,M,0.0,0000*59
$GPRMC,225048.00,A,3722.313321,N,12204.019447,W,060.1,154.3,290520,,,A*42
$GPGGA,225049.00,3722.297805,N,12204.010045,W,7,,0.38,14.23,M,0.0,M,0.0,0000*51
$GPRMC,225049.00,A,3722.297805,N,12204.010045,W,060.5,154.2,290520,,,A*49
$GPGGA,225050.00,3722.282500,N,12204.000877,W,7,,0.38,14.36,M,0.0,M,0.0,0000*59
$GPRMC,225050.00,A,3722.282500,N,12204.000877,W,060.7,154.4,290520,,,A*41
$GPGGA,225051.00,3722.267224,N,12203.991613,W,7,,0.38,14.48,M,0.0,M,0.0,0000*51
$GPRMC,225051.00,A,3722.267224,N,12203.991613,W,061.1,154.3,290520,,,A*40
