$GPGGA,224049.00,3724.9119292,N,12204.8244462,W,1,11,1.6,7.55,M,-32.65,M,,*5C
$GPRMC,224049.00,A,3724.912,N,12204.824,W,0.2,221.5,290520,,,A*6F
$GPGGA,224049.10,3724.9119327,N,12204.8244429,W,1,11,1.6,7.55,M,-32.65,M,,*5D
$GPRMC,224049.10,A,3724.912,N,12204.824,W,0.1,221.5,290520,,,A*6B
$GPGGA,224049.20,3724.9119389,N,12204.8244423,W,1,11,1.6,7.54,M,-32.65,M,,*51
$GPRMC,224049.20,A,3724.912,N,12204.824,W,0.1,221.5,290520,,,A*11
$GPGGA,224049.30,3724.9119441,N,12204.8244411,W,1,11,1.6,7.54,M,-32.65,M,,*52
$GPRMC,224049.30,A,3724.912,N,12204.824,W,0.1,221.5,290520,,,A*10
$GPGGA,224049.40,3724.9119467,N,12204.8244378,W,1,11,1.6,7.54,M,-32.65,M,,*59
$GPRMC,224049.40,A,3724.912,N,12204.824,W,0.1,221.5,290520,,,A*17
$GPGGA,224049.50,3724.9119479,N,12204.8244334,W,1,11,1.6,7.54,M,-32.65,M,,*5F
$GPRMC,224049.50,A,3724.912,N,12204.824,W,0.1,221.5,290520,,,A*6F
$GPGGA,224049.60,3724.9119456,N,12204.8244259,W,1,11,1.6,7.54,M,-32.65,M,,*5B
$GPRMC,224049.60,A,3724.912,N,12204.824,W,0.1,221.5,290520,,,A*6C
$GPGGA,224049.70,3724.9119438,N,12204.8244191,W,1,11,1.6,7.54,M,-32.65,M,,*55
$GPRMC,224049.70,A,3724.912,N,12204.824,W,0.1,221.5,290520,,,A*14
$GPGGA,224049.80,3724.9119431,N,12204.8244135,W,1,11,1.6,7.54,M,-32.65,M,,*5D
$GPRMC,224049.80,A,3724.912,N,12204.824,W,0.1,221.5,290520,,,A*62
$GPGGA,224049.90,3724.9119433,N,12204.8244088,W,1,11,1.6,7.54,M,-32.65,M,,*59
$GPRMC,224049.90,A,3724.912,N,12204.824,W,0.1,221.5,290520,,,A*1A
$GPGGA,224050.00,3724.9119438,N,12204.8244045,W,1,11,1.6,7.53,M,-32.65,M,,*55
$GPRMC,224050.00,A,3724.912,N,12204.824,W,0.1,221.5,290520,,,A*1B
$GPGGA,224050.10,3724.9119445,N,12204.8244004,W,1,11,1.6,7.53,M,-32.65,M,,*5B
$GPRMC,224050.10,A,3724.912,N,12204.824,W,0.1,221.5,290520,,,A*63
$GPGGA,224050.20,3724.9119454,N,12204.8243967,W,1,11,1.6,7.53,M,-32.65,M,,*53
$GPRMC,224050.20,A,3724.912,N,12204.824,W,0.1,221.5,290520,,,A*19
$GPGGA,224050.30,3724.9119463,N,12204.8243933,W,1,11,1.6,7.53,M,-32.65,M,,*57
$GPRMC,224050.30,A,3724.912,N,12204.824,W,0.1,221.5,290520,,,A*18
$GPGGA,224050.40,3724.9119474,N,12204.8243904,W,1,11,1.6,7.53,M,-32.65,M,,*52
$GPRMC,224050.40,A,3724.912,N,12204.824,W,0.1,221.5,290520,,,A*1F
$GPGGA,224050.50,3724.9119489,N,12204.8243882,W,1,11,1.6,7.53,M,-32.65,M,,*5E
$GPRMC,224050.50,A,3724.912,N,12204.824,W,0.1,221.5,290520,,,A*65
$GPGGA,224050.60,3724.9119507,N,12204.8243864,W,1,11,1.6,7.53,M,-32.65,M,,*52
$GPRMC,224050.60,A,3724.912,N,12204.824,W,0.1,221.5,290520,,,A*1D
$GPGGA,224050.70,3724.9119529,N,12204.8243850,W,1,11,1.6,7.53,M,-32.65,M,,*58
$GPRMC,224050.70,A,3724.912,N,12204.824,W,0.1,221.5,290520,,,A*1C
$GPGGA,224050.80,3724.9119554,N,12204.8243839,W,1,11,1.6,7.52,M,-32.65,M,,*53
$GPRMC,224050.80,A,3724.912,N,12204.824,W,0.1,221.5,290520,,,A*13
$GPGGA,224050.90,3724.9119580,N,12204.8243833,W,1,11,1.6,7.52,M,-32.65,M,,*51
$GPRMC,224050.90,A,3724.912,N,12204.824,W,0.1,221.5,290520,,,A*12
$GPGGA,224051.00,3724.9119606,N,12204.8243838,W,1,11,1.6,7.52,M,-32.65,M,,*5F
$GPRMC,224051.00,A,3724.912,N,12204.824,W,0.1,221.5,290520,,,A*63
$GPGGA,224051.10,3724.9119632,N,12204.8243849,W,1,11,1.6,7.52,M,-32.65,M,,*5F
$GPRMC,224051.10,A,3724.912,N,12204.824,W,0.1,221.5,290520,,,A*62
$GPGGA,224051.20,3724.9119656,N,12204.8243863,W,1,11,1.6,7.52,M,-32.65,M,,*56
$GPRMC,224051.20,A,3724.912,N,12204.824,W,0.1,221.5,290520,,,A*18
$GPGGA,224051.30,3724.9119676,N,12204.8243874,W,1,11,1.6,7.52,M,-32.65,M,,*53
$GPRMC,224051.30,A,3724.912,N,12204.824,W,0.1,221.5,290520,,,A*19
$GPGGA,224051.40,3724.9119692,N,12204.8243882,W,1,11,1.6,7.52,M,-32.65,M,,*57
$GPRMC,224051.40,A,3724.912,N,12204.824,W,0.1,221.5,290520,,,A*1E
$GPGGA,224051.50,3724.9119707,N,12204.8243893,W,1,11,1.6,7.52,M,-32.65,M,,*5B
$GPRMC,224051.50,A,3724.912,N,12204.824,W,0.1,221.5,290520,,,A*66
$GPGGA,224051.60,3724.9119721,N,12204.8243903,W,1,11,1.6,7.52,M,-32.65,M,,*54
$GPRMC,224051.60,A,3724.912,N,12204.824,W,0.1,221.5,290520,,,A*1C
$GPGGA,224051.70,3724.9119732,N,12204.8243910,W,1,11,1.6,7.52,M,-32.65,M,,*55
$GPRMC,224051.70,A,3724.912,N,12204.824,W,0.1,221.5,290520,,,A*1D
$GPGGA,224051.80,3724.9119738,N,12204.8243912,W,1,11,1.6,7.51,M,-32.65,M,,*51
$GPRMC,224051.80,A,3724.912,N,12204.824,W,0.1,221.5,290520,,,A*12
$GPGGA,224051.90,3724.9119742,N,12204.8243913,W,1,11,1.6,7.51,M,-32.65,M,,*5C
$GPRMC,224051.90,A,3724.912,N,12204.824,W,0.0,221.5,290520,,,A*6D
$GPGGA,224052.00,3724.9119747,N,12204.8243912,W,1,11,1.6,7.51,M,-32.65,M,,*52
$GPRMC,224052.00,A,3724.912,N,12204.824,W,0.0,221.5,290520,,,A*18
$GPGGA,224052.10,3724.9119752,N,12204.8243909,W,1,12,1.6,7.51,M,-32.65,M,,*5E
$GPRMC,224052.10,A,3724.912,N,12204.824,W,0.0,221.5,290520,,,A*62
$GPGGA,224052.20,3724.9119755,N,12204.8243904,W,1,12,1.6,7.51,M,-32.65,M,,*57
$GPRMC,224052.20,A,3724.912,N,12204.824,W,0.0,221.5,290520,,,A*1A
$GPGGA,224052.30,3724.9119758,N,12204.8243898,W,1,12,1.6,7.51,M,-32.65,M,,*5F
$GPRMC,224052.30,A,3724.912,N,12204.824,W,0.0,221.5,290520,,,A*62
$GPGGA,224052.40,3724.9119761,N,12204.8243895,W,1,12,1.6,7.51,M,-32.65,M,,*5F
$GPRMC,224052.40,A,3724.912,N,12204.824,W,0.0,221.5,290520,,,A*65
$GPGGA,224052.50,3724.9119764,N,12204.8243893,W,1,12,1.5,7.51,M,-32.65,M,,*5E
$GPRMC,224052.50,A,3724.912,N,12204.824,W,0.0,221.5,290520,,,A*66
$GPGGA,224052.60,3724.9119767,N,12204.8243891,W,1,12,1.5,7.51,M,-32.65,M,,*5C
$GPRMC,224052.60,A,3724.912,N,12204.824,W,0.0,221.5,290520,,,A*61
$GPGGA,224052.70,3724.9119769,N,12204.8243889,W,1,12,1.5,7.51,M,-32.65,M,,*5A
$GPRMC,224052.70,A,3724.912,N,12204.824,W,0.0,221.5,290520,,,A*64
$GPGGA,224052.80,3724.9119773,N,12204.8243888,W,1,12,1.5,7.51,M,-32.65,M,,*5F
$GPRMC,224052.80,A,3724.912,N,12204.824,W,0.0,221.5,290520,,,A*69
$GPGGA,224052.90,3724.9119776,N,12204.8243889,W,1,12,1.5,7.51,M,-32.65,M,,*5A
$GPRMC,224052.90,A,3724.912,N,12204.824,W,0.0,221.5,290520,,,A*6A
$GPGGA,224053.00,3724.9119778,N,12204.8243889,W,1,12,1.5,7.51,M,-32.65,M,,*5C
$GPRMC,224053.00,A,3724.912,N,12204.824,W,0.0,221.5,290520,,,A*66
$GPGGA,224053.10,3724.9119782,N,12204.8243888,W,1,12,1.5,7.51,M,-32.65,M,,*59
$GPRMC,224053.10,A,3724.912,N,12204.824,W,0.0,221.5,290520,,,A*18
$GPGGA,224053.20,3724.9119785,N,12204.8243889,W,1,12,1.5,7.51,M,-32.65,M,,*5C
$GPRMC,224053.20,A,3724.912,N,12204.824,W,0.0,221.5,290520,,,A*64
$GPGGA,224053.30,3724.9119788,N,12204.8243892,W,1,12,1.5,7.51,M,-32.65,M,,*5A
$GPRMC,224053.30,A,3724.912,N,12204.824,W,0.0,221.5,290520,,,A*61
$GPGGA,224053.40,3724.9119789,N,12204.8243895,W,1,12,1.5,7.51,M,-32.65,M,,*5B
$GPRMC,224053.40,A,3724.912,N,12204.824,W,0.0,221.5,290520,,,A*64
$GPGGA,224053.50,3724.9119791,N,12204.8243898,W,1,12,1.5,7.51,M,-32.65,M,,*5E
$GPRMC,224053.50,A,3724.912,N,12204.824,W,0.0,221.5,290520,,,A*67
$GPGGA,224053.60,3724.9119793,N,12204.8243902,W,1,12,1.5,7.51,M,-32.65,M,,*5D
$GPRMC,224053.60,A,3724.912,N,12204.824,W,0.0,221.5,290520,,,A*66
$GPGGA,224053.70,3724.9119796,N,12204.8243908,W,1,12,1.5,7.51,M,-32.65,M,,*53
$GPRMC,224053.70,A,3724.912,N,12204.824,W,0.0,221.5,290520,,,A*1E
$GPGGA,224053.80,3724.9119799,N,12204.8243913,W,1,12,1.5,7.51,M,-32.65,M,,*59
$GPRMC,224053.80,A,3724.912,N,12204.824,W,0.0,221.5,290520,,,A*11
$GPGGA,224053.90,3724.9119801,N,12204.8243919,W,1,12,1.5,7.51,M,-32.65,M,,*5C
$GPRMC,224053.90,A,3724.912,N,12204.824,W,0.0,221.5,290520,,,A*6F
$GPGGA,224054.00,3724.9119802,N,12204.8243926,W,1,12,1.5,7.51,M,-32.65,M,,*5D
$GPRMC,224054.00,A,3724.912,N,12204.824,W,0.0,221.5,290520,,,A*67
$GPGGA,224054.10,3724.9119805,N,12204.8243935,W,1,12,1.5,7.51,M,-32.65,M,,*59
$GPRMC,224054.10,A,3724.912,N,12204.824,W,0.0,221.5,290520,,,A*1F
$GPGGA,224054.20,3724.9119809,N,12204.8243948,W,1,12,1.5,7.51,M,-32.65,M,,*5C
$GPRMC,224054.20,A,3724.912,N,12204.824,W,0.0,221.5,290520,,,A*63
$GPGGA,224054.30,3724.9119811,N,12204.8243965,W,1,12,1.5,7.51,M,-32.65,M,,*5B
$GPRMC,224054.30,A,3724.912,N,12204.824,W,0.0,221.5,290520,,,A*64
$GPGGA,224054.40,3724.9119813,N,12204.8243983,W,1,12,1.5,7.51,M,-32.65,M,,*56
$GPRMC,224054.40,A,3724.912,N,12204.824,W,0.0,221.5,290520,,,A*1A
$GPGGA,224054.50,3724.9119815,N,12204.8244005,W,1,12,1.5,7.51,M,-32.65,M,,*51
$GPRMC,224054.50,A,3724.912,N,12204.824,W,0.1,221.5,290520,,,A*1A
$GPGGA,224054.60,3724.9119819,N,12204.8244029,W,1,12,1.5,7.51,M,-32.65,M,,*50
$GPRMC,224054.60,A,3724.912,N,12204.824,W,0.1,221.5,290520,,,A*19
$GPGGA,224054.70,3724.9119823,N,12204.8244053,W,1,12,1.5,7.51,M,-32.65,M,,*55
$GPRMC,224054.70,A,3724.912,N,12204.824,W,0.1,221.5,290520,,,A*18
$GPGGA,224054.80,3724.9119825,N,12204.8244077,W,1,12,1.5,7.51,M,-32.65,M,,*5A
$GPRMC,224054.80,A,3724.912,N,12204.824,W,0.1,221.5,290520,,,A*6C
$GPGGA,224054.90,3724.9119827,N,12204.8244099,W,1,12,1.5,7.51,M,-32.65,M,,*59
$GPRMC,224054.90,A,3724.912,N,12204.824,W,0.1,221.5,290520,,,A*16
$GPGGA,224055.00,3724.9119829,N,12204.8244118,W,1,12,1.5,7.51,M,-32.65,M,,*57
$GPRMC,224055.00,A,3724.912,N,12204.824,W,0.1,221.5,290520,,,A*1E
$GPGGA,224055.10,3724.9119831,N,12204.8244134,W,1,12,1.5,7.51,M,-32.65,M,,*51
$GPRMC,224055.10,A,3724.912,N,12204.824,W,0.1,221.5,290520,,,A*1F
$GPGGA,224055.20,3724.9119833,N,12204.8244146,W,1,12,1.5,7.51,M,-32.65,M,,*55
$GPRMC,224055.20,A,3724.912,N,12204.824,W,0.1,221.5,290520,,,A*1C
$GPGGA,224055.30,3724.9119834,N,12204.8244154,W,1,12,1.5,7.51,M,-32.65,M,,*50
$GPRMC,224055.30,A,3724.912,N,12204.824,W,0.1,221.5,290520,,,A*1D
$GPGGA,224055.40,3724.9119832,N,12204.8244161,W,1,12,1.5,7.51,M,-32.65,M,,*57
$GPRMC,224055.40,A,3724.912,N,12204.824,W,0.1,221.5,290520,,,A*1A
$GPGGA,224055.50,3724.9119834,N,12204.8244165,W,1,12,1.5,7.51,M,-32.65,M,,*54
$GPRMC,224055.50,A,3724.912,N,12204.824,W,0.1,221.5,290520,,,A*1B
$GPGGA,224055.60,3724.9119833,N,12204.8244167,W,1,12,1.5,7.51,M,-32.65,M,,*52
$GPRMC,224055.60,A,3724.912,N,12204.824,W,0.1,221.5,290520,,,A*18
$GPGGA,224055.70,3724.9119833,N,12204.8244168,W,1,12,1.5,7.51,M,-32.65,M,,*5C
$GPRMC,224055.70,A,3724.912,N,12204.824,W,0.1,221.5,290520,,,A*66
$GPGGA,224055.80,3724.9119833,N,12204.8244169,W,1,12,1.5,7.51,M,-32.65,M,,*52
$GPRMC,224055.80,A,3724.912,N,12204.824,W,0.1,221.5,290520,,,A*16
$GPGGA,224055.90,3724.9119833,N,12204.8244169,W,1,12,1.5,7.51,M,-32.65,M,,*53
$GPRMC,224055.90,A,3724.912,N,12204.824,W,0.1,221.5,290520,,,A*17
$GPGGA,224056.00,3724.9119833,N,12204.8244170,W,1,12,1.5,7.51,M,-32.65,M,,*51
$GPRMC,224056.00,A,3724.912,N,12204.824,W,0.1,221.5,290520,,,A*1D
$GPGGA,224056.10,3724.9119833,N,12204.8244170,W,1,12,1.5,7.51,M,-32.65,M,,*50
$GPRMC,224056.10,A,3724.912,N,12204.824,W,0.1,221.5,290520,,,A*1C
$GPGGA,224056.20,3724.9119833,N,12204.8244171,W,1,12,1.5,7.51,M,-32.65,M,,*52
$GPRMC,224056.20,A,3724.912,N,12204.824,W,0.1,221.5,290520,,,A*1F
$GPGGA,224056.30,3724.9119833,N,12204.8244171,W,1,12,1.5,7.51,M,-32.65,M,,*53
$GPRMC,224056.30,A,3724.912,N,12204.824,W,0.1,221.5,290520,,,A*1E
$GPGGA,224056.40,3724.9119833,N,12204.8244172,W,1,12,1.5,7.51,M,-32.65,M,,*57
$GPRMC,224056.40,A,3724.912,N,12204.824,W,0.1,221.5,290520,,,A*19
$GPGGA,224056.50,3724.9119832,N,12204.8244172,W,1,12,1.5,7.51,M,-32.65,M,,*57
$GPRMC,224056.50,A,3724.912,N,12204.824,W,0.1,221.5,290520,,,A*18
$GPGGA,224056.60,3724.9119831,N,12204.8244219,W,1,12,1.5,7.51,M,-32.65,M,,*59
$GPRMC,224056.60,A,3724.912,N,12204.824,W,0.2,221.5,290520,,,A*18
$GPGGA,224056.70,3724.9119829,N,12204.8244270,W,1,12,1.5,7.51,M,-32.65,M,,*5E
$GPRMC,224056.70,A,3724.912,N,12204.824,W,0.2,221.5,290520,,,A*62
$GPGGA,224056.80,3724.9119827,N,12204.8244322,W,1,12,1.5,7.51,M,-32.65,M,,*59
$GPRMC,224056.80,A,3724.912,N,12204.824,W,0.2,221.5,290520,,,A*16
$GPGGA,224056.90,3724.9119825,N,12204.8244374,W,1,12,1.5,7.51,M,-32.65,M,,*59
$GPRMC,224056.90,A,3724.912,N,12204.824,W,0.2,221.5,290520,,,A*17
$GPGGA,224057.00,3724.9119821,N,12204.8244427,W,1,12,1.5,7.51,M,-32.65,M,,*54
$GPRMC,224057.00,A,3724.912,N,12204.824,W,0.2,221.4,290520,,,A*1E
$GPGGA,224057.10,3724.9119816,N,12204.8244485,W,1,12,1.5,7.51,M,-32.65,M,,*59
$GPRMC,224057.10,A,3724.912,N,12204.824,W,0.2,221.4,290520,,,A*1F
$GPGGA,224057.20,3724.9119813,N,12204.8244546,W,1,12,1.5,7.51,M,-32.65,M,,*51
$GPRMC,224057.20,A,3724.912,N,12204.824,W,0.2,221.5,290520,,,A*1D
$GPGGA,224057.30,3724.9119810,N,12204.8244610,W,1,12,1.5,7.51,M,-32.65,M,,*53
$GPRMC,224057.30,A,3724.912,N,12204.824,W,0.2,221.5,290520,,,A*1C
$GPGGA,224057.40,3724.9119806,N,12204.8244674,W,1,12,1.5,7.51,M,-32.65,M,,*51
$GPRMC,224057.40,A,3724.912,N,12204.824,W,0.2,221.5,290520,,,A*1B
$GPGGA,224057.50,3724.9119801,N,12204.8244736,W,1,12,1.5,7.51,M,-32.65,M,,*50
$GPRMC,224057.50,A,3724.912,N,12204.824,W,0.2,221.5,290520,,,A*1A
$GPGGA,224057.60,3724.9119795,N,12204.8244801,W,1,12,1.5,7.51,M,-32.65,M,,*5A
$GPRMC,224057.60,A,3724.912,N,12204.824,W,0.2,221.5,290520,,,A*62
$GPGGA,224057.70,3724.9119793,N,12204.8244863,W,1,12,1.5,7.51,M,-32.65,M,,*59
$GPRMC,224057.70,A,3724.912,N,12204.824,W,0.2,221.5,290520,,,A*18
$GPGGA,224057.80,3724.9119800,N,12204.8244915,W,1,12,1.5,7.51,M,-32.65,M,,*53
$GPRMC,224057.80,A,3724.912,N,12204.824,W,0.2,221.5,290520,,,A*17
$GPGGA,224057.90,3724.9119819,N,12204.8244952,W,1,12,1.5,7.51,M,-32.65,M,,*59
$GPRMC,224057.90,A,3724.912,N,12204.824,W,0.1,221.4,290520,,,A*14
$GPGGA,224058.00,3724.9119849,N,12204.8244971,W,1,12,1.5,7.51,M,-32.65,M,,*5B
$GPRMC,224058.00,A,3724.912,N,12204.824,W,0.1,221.4,290520,,,A*6B
$GPGGA,224058.10,3724.9119886,N,12204.8244979,W,1,12,1.5,7.51,M,-32.65,M,,*51
$GPRMC,224058.10,A,3724.912,N,12204.824,W,0.2,221.3,290520,,,A*17
$GPGGA,224058.20,3724.9119932,N,12204.8244970,W,1,12,1.6,7.51,M,-32.65,M,,*56
$GPRMC,224058.20,A,3724.912,N,12204.824,W,0.2,221.2,290520,,,A*15
$GPGGA,224058.30,3724.9119988,N,12204.8244946,W,1,12,1.6,7.51,M,-32.65,M,,*53
$GPRMC,224058.30,A,3724.912,N,12204.824,W,0.2,221.1,290520,,,A*17
$GPGGA,224058.40,3724.9120051,N,12204.8244908,W,1,12,1.6,7.51,M,-32.65,M,,*59
$GPRMC,224058.40,A,3724.912,N,12204.824,W,0.3,220.9,290520,,,A*18
$GPGGA,224058.50,3724.9120122,N,12204.8244850,W,1,12,1.7,7.51,M,-32.65,M,,*50
$GPRMC,224058.50,A,3724.912,N,12204.824,W,0.3,220.7,290520,,,A*17
$GPGGA,224058.60,3724.9120199,N,12204.8244782,W,1,12,1.7,7.51,M,-32.65,M,,*53
$GPRMC,224058.60,A,3724.912,N,12204.824,W,0.3,220.5,290520,,,A*16
$GPGGA,224058.70,3724.9120285,N,12204.8244696,W,1,12,1.7,7.51,M,-32.65,M,,*58
$GPRMC,224058.70,A,3724.912,N,12204.824,W,0.4,220.3,290520,,,A*16
$GPGGA,224058.80,3724.9120380,N,12204.8244591,W,1,12,1.8,7.51,M,-32.65,M,,*58
$GPRMC,224058.80,A,3724.912,N,12204.824,W,0.4,220.0,290520,,,A*1A
$GPGGA,224058.90,3724.9120484,N,12204.8244467,W,1,12,1.8,7.51,M,-32.65,M,,*52
$GPRMC,224058.90,A,3724.912,N,12204.824,W,0.5,219.7,290520,,,A*17
$GPGGA,224059.00,3724.9120598,N,12204.8244321,W,1,10,1.9,7.51,M,-32.65,M,,*50
$GPRMC,224059.00,A,3724.912,N,12204.824,W,0.5,219.3,290520,,,A*1B
$GPGGA,224059.10,3724.9120721,N,12204.8244161,W,1,10,1.9,7.51,M,-32.65,M,,*57
$GPRMC,224059.10,A,3724.912,N,12204.824,W,0.6,218.9,290520,,,A*12
$GPGGA,224059.20,3724.9120856,N,12204.8243975,W,1,10,1.9,7.51,M,-32.65,M,,*51
$GPRMC,224059.20,A,3724.912,N,12204.824,W,0.7,218.4,290520,,,A*1D
$GPGGA,224059.30,3724.9121003,N,12204.8243758,W,1,10,1.9,7.52,M,-32.65,M,,*5B
$GPRMC,224059.30,A,3724.912,N,12204.824,W,0.7,217.9,290520,,,A*67
$GPGGA,224059.40,3724.9121161,N,12204.8243506,W,1,10,1.9,7.52,M,-32.65,M,,*50
$GPRMC,224059.40,A,3724.912,N,12204.824,W,0.8,217.2,290520,,,A*1D
$GPGGA,224059.50,3724.9121335,N,12204.8243216,W,1,10,2.0,7.52,M,-32.65,M,,*5E
$GPRMC,224059.50,A,3724.912,N,12204.824,W,0.9,216.5,290520,,,A*60
$GPGGA,224059.60,3724.9121524,N,12204.8242894,W,1,10,2.0,7.52,M,-32.65,M,,*5A
$GPRMC,224059.60,A,3724.912,N,12204.824,W,1.0,215.7,290520,,,A*6A
$GPGGA,224059.70,3724.9121735,N,12204.8242538,W,1,10,2.0,7.52,M,-32.65,M,,*52
$GPRMC,224059.70,A,3724.912,N,12204.824,W,1.1,214.7,290520,,,A*10
$GPGGA,224059.80,3724.9121973,N,12204.8242153,W,1,10,2.0,7.52,M,-32.65,M,,*58
$GPRMC,224059.80,A,3724.912,N,12204.824,W,1.2,213.7,290520,,,A*1B
$GPGGA,224059.90,3724.9122240,N,12204.8241738,W,1,10,2.1,7.52,M,-32.65,M,,*58
$GPRMC,224059.90,A,3724.912,N,12204.824,W,1.4,212.6,290520,,,A*1C
$GPGGA,224100.00,3724.9122535,N,12204.8241293,W,1,08,2.1,7.52,M,-32.65,M,,*54
$GPRMC,224100.00,A,3724.912,N,12204.824,W,1.5,211.5,290520,,,A*19
$GPGGA,224100.10,3724.9122855,N,12204.8240826,W,1,08,2.4,7.52,M,-32.65,M,,*5E
$GPRMC,224100.10,A,3724.912,N,12204.824,W,1.6,210.2,290520,,,A*66
$GPGGA,224100.20,3724.9123213,N,12204.8240326,W,1,08,2.6,7.52,M,-32.65,M,,*5D
$GPRMC,224100.20,A,3724.912,N,12204.824,W,1.7,208.8,290520,,,A*65
$GPGGA,224100.30,3724.9123611,N,12204.8239797,W,1,08,2.8,7.52,M,-32.65,M,,*54
$GPRMC,224100.30,A,3724.912,N,12204.824,W,1.9,207.4,290520,,,A*10
$GPGGA,224100.40,3724.9124054,N,12204.8239235,W,1,08,3.1,7.52,M,-32.65,M,,*56
$GPRMC,224100.40,A,3724.912,N,12204.824,W,2.0,205.8,290520,,,A*13
$GPGGA,224100.50,3724.9124548,N,12204.8238643,W,1,08,3.3,7.53,M,-32.65,M,,*58
$GPRMC,224100.50,A,3724.912,N,12204.824,W,2.2,204.1,290520,,,A*18
$GPGGA,224100.60,3724.9125086,N,12204.8238032,W,1,08,3.6,7.53,M,-32.65,M,,*58
$GPRMC,224100.60,A,3724.913,N,12204.824,W,2.3,202.3,290520,,,A*1F
$GPGGA,224100.70,3724.9125668,N,12204.8237406,W,1,08,3.8,7.53,M,-32.65,M,,*5D
$GPRMC,224100.70,A,3724.913,N,12204.824,W,2.4,200.5,290520,,,A*64
$GPGGA,224100.80,3724.9126289,N,12204.8236783,W,1,08,4.0,7.53,M,-32.65,M,,*5A
$GPRMC,224100.80,A,3724.913,N,12204.824,W,2.5,198.6,290520,,,A*69
$GPGGA,224100.90,3724.9126937,N,12204.8236173,W,1,08,4.3,7.53,M,-32.65,M,,*5F
$GPRMC,224100.90,A,3724.913,N,12204.824,W,2.5,196.6,290520,,,A*64
$GPGGA,224101.00,3724.9127603,N,12204.8235586,W,1,07,4.5,7.53,M,-32.65,M,,*5A
$GPRMC,224101.00,A,3724.913,N,12204.824,W,2.5,194.7,290520,,,A*6D
$GPGGA,224101.10,3724.9128287,N,12204.8235030,W,1,07,4.5,7.53,M,-32.65,M,,*54
$GPRMC,224101.10,A,3724.913,N,12204.824,W,2.5,192.8,290520,,,A*1E
$GPGGA,224101.20,3724.9128984,N,12204.8234518,W,1,07,4.5,7.53,M,-32.65,M,,*51
$GPRMC,224101.20,A,3724.913,N,12204.823,W,2.5,190.9,290520,,,A*19
$GPGGA,224101.30,3724.9129689,N,12204.8234062,W,1,07,4.5,7.53,M,-32.65,M,,*5B
$GPRMC,224101.30,A,3724.913,N,12204.823,W,2.5,189.1,290520,,,A*61
$GPGGA,224101.40,3724.9130388,N,12204.8233674,W,1,07,4.5,7.53,M,-32.65,M,,*56
$GPRMC,224101.40,A,3724.913,N,12204.823,W,2.4,187.4,290520,,,A*15
$GPGGA,224101.50,3724.9131073,N,12204.8233345,W,1,07,4.5,7.54,M,-32.65,M,,*51
$GPRMC,224101.50,A,3724.913,N,12204.823,W,2.3,185.8,290520,,,A*1D
$GPGGA,224101.60,3724.9131735,N,12204.8233068,W,1,07,4.5,7.54,M,-32.65,M,,*5B
$GPRMC,224101.60,A,3724.913,N,12204.823,W,2.2,184.3,290520,,,A*6C
$GPGGA,224101.70,3724.9132377,N,12204.8232841,W,1,07,4.5,7.54,M,-32.65,M,,*59
$GPRMC,224101.70,A,3724.913,N,12204.823,W,2.1,182.9,290520,,,A*1B
$GPGGA,224101.80,3724.9132997,N,12204.8232655,W,1,07,4.5,7.54,M,-32.65,M,,*59
$GPRMC,224101.80,A,3724.913,N,12204.823,W,2.0,181.5,290520,,,A*1A
$GPGGA,224101.90,3724.9133606,N,12204.8232494,W,1,07,4.5,7.54,M,-32.65,M,,*51
$GPRMC,224101.90,A,3724.913,N,12204.823,W,2.0,180.1,290520,,,A*1E
$GPGGA,224102.00,3724.9134208,N,12204.8232349,W,1,07,4.5,7.54,M,-32.65,M,,*51
$GPRMC,224102.00,A,3724.913,N,12204.823,W,2.0,178.8,290520,,,A*1A
$GPGGA,224102.10,3724.9134816,N,12204.8232222,W,1,07,4.5,7.54,M,-32.65,M,,*59
$GPRMC,224102.10,A,3724.913,N,12204.823,W,2.0,177.5,290520,,,A*19
$GPGGA,224102.20,3724.9135429,N,12204.8232114,W,1,07,4.5,7.54,M,-32.65,M,,*5D
$GPRMC,224102.20,A,3724.914,N,12204.823,W,2.0,176.2,290520,,,A*62
$GPGGA,224102.30,3724.9136045,N,12204.8232022,W,1,07,4.5,7.55,M,-32.65,M,,*54
$GPRMC,224102.30,A,3724.914,N,12204.823,W,2.0,174.9,290520,,,A*13
$GPGGA,224102.40,3724.9136667,N,12204.8231945,W,1,07,4.5,7.55,M,-32.65,M,,*5E
$GPRMC,224102.40,A,3724.914,N,12204.823,W,2.0,173.5,290520,,,A*64
$GPGGA,224102.50,3724.9137292,N,12204.8231882,W,1,07,4.5,7.55,M,-32.65,M,,*5A
$GPRMC,224102.50,A,3724.914,N,12204.823,W,2.0,172.2,290520,,,A*63
$GPGGA,224102.60,3724.9137914,N,12204.8231826,W,1,07,4.5,7.55,M,-32.65,M,,*52
$GPRMC,224102.60,A,3724.914,N,12204.823,W,2.0,170.8,290520,,,A*13
$GPGGA,224102.70,3724.9138539,N,12204.8231777,W,1,07,4.5,7.55,M,-32.65,M,,*54
$GPRMC,224102.70,A,3724.914,N,12204.823,W,2.0,169.3,290520,,,A*11
$GPGGA,224102.80,3724.9139168,N,12204.8231731,W,1,07,4.5,7.55,M,-32.65,M,,*58
$GPRMC,224102.80,A,3724.914,N,12204.823,W,2.0,167.8,290520,,,A*1B
$GPGGA,224102.90,3724.9139800,N,12204.8231698,W,1,07,4.5,7.55,M,-32.65,M,,*5C
$GPRMC,224102.90,A,3724.914,N,12204.823,W,2.0,166.3,290520,,,A*6F
$GPGGA,224103.00,3724.9140430,N,12204.8231693,W,1,07,4.5,7.56,M,-32.65,M,,*5D
$GPRMC,224103.00,A,3724.914,N,12204.823,W,2.0,164.8,290520,,,A*68
$GPGGA,224103.10,3724.9141062,N,12204.8231718,W,1,07,4.5,7.56,M,-32.65,M,,*5C
$GPRMC,224103.10,A,3724.914,N,12204.823,W,2.0,163.3,290520,,,A*63
$GPGGA,224103.20,3724.9141693,N,12204.8231770,W,1,07,4.5,7.56,M,-32.65,M,,*59
$GPRMC,224103.20,A,3724.914,N,12204.823,W,2.0,161.9,290520,,,A*17
$GPGGA,224103.30,3724.9142326,N,12204.8231839,W,1,07,4.5,7.56,M,-32.65,M,,*52
$GPRMC,224103.30,A,3724.914,N,12204.823,W,2.0,160.4,290520,,,A*1A
$GPGGA,224103.40,3724.9142958,N,12204.8231928,W,1,07,4.5,7.56,M,-32.65,M,,*57
$GPRMC,224103.40,A,3724.914,N,12204.823,W,2.0,158.9,290520,,,A*1B
$GPGGA,224103.50,3724.9143589,N,12204.8232038,W,1,07,4.5,7.56,M,-32.65,M,,*5C
$GPRMC,224103.50,A,3724.914,N,12204.823,W,2.0,157.4,290520,,,A*67
$GPGGA,224103.60,3724.9144215,N,12204.8232169,W,1,07,4.5,7.57,M,-32.65,M,,*5E
$GPRMC,224103.60,A,3724.914,N,12204.823,W,2.0,155.9,290520,,,A*6F
$GPGGA,224103.70,3724.9144843,N,12204.8232325,W,1,07,4.5,7.57,M,-32.65,M,,*5C
$GPRMC,224103.70,A,3724.914,N,12204.823,W,2.0,154.4,290520,,,A*66
$GPGGA,224103.80,3724.9145473,N,12204.8232503,W,1,07,4.5,7.57,M,-32.65,M,,*5F
$GPRMC,224103.80,A,3724.915,N,12204.823,W,2.1,152.9,290520,,,A*64
$GPGGA,224103.90,3724.9146110,N,12204.8232707,W,1,07,4.5,7.57,M,-32.65,M,,*5B
$GPRMC,224103.90,A,3724.915,N,12204.823,W,2.1,151.4,290520,,,A*6B
$GPGGA,224104.00,3724.9146750,N,12204.8232932,W,1,07,4.5,7.57,M,-32.65,M,,*5F
$GPRMC,224104.00,A,3724.915,N,12204.823,W,2.1,149.9,290520,,,A*61
$GPGGA,224104.10,3724.9147397,N,12204.8233179,W,1,07,4.5,7.57,M,-32.65,M,,*56
$GPRMC,224104.10,A,3724.915,N,12204.823,W,2.2,148.3,290520,,,A*11
$GPGGA,224104.20,3724.9148049,N,12204.8233452,W,1,07,4.5,7.57,M,-32.65,M,,*56
$GPRMC,224104.20,A,3724.915,N,12204.823,W,2.2,146.7,290520,,,A*18
$GPGGA,224104.30,3724.9148706,N,12204.8233755,W,1,07,4.5,7.57,M,-32.65,M,,*5F
$GPRMC,224104.30,A,3724.915,N,12204.823,W,2.2,145.1,290520,,,A*65
$GPGGA,224104.40,3724.9149366,N,12204.8234090,W,1,07,4.5,7.57,M,-32.65,M,,*52
$GPRMC,224104.40,A,3724.915,N,12204.823,W,2.3,143.5,290520,,,A*18
$GPGGA,224104.50,3724.9150025,N,12204.8234454,W,1,07,4.5,7.57,M,-32.65,M,,*53
$GPRMC,224104.50,A,3724.915,N,12204.823,W,2.3,141.8,290520,,,A*16
$GPGGA,224104.60,3724.9150684,N,12204.8234836,W,1,07,4.5,7.56,M,-32.65,M,,*54
$GPRMC,224104.60,A,3724.915,N,12204.823,W,2.3,140.2,290520,,,A*1E
$GPGGA,224104.70,3724.9151343,N,12204.8235241,W,1,07,4.5,7.56,M,-32.65,M,,*51
$GPRMC,224104.70,A,3724.915,N,12204.824,W,2.3,138.6,290520,,,A*13
$GPGGA,224104.80,3724.9151999,N,12204.8235672,W,1,07,4.5,7.56,M,-32.65,M,,*57
$GPRMC,224104.80,A,3724.915,N,12204.824,W,2.4,136.9,290520,,,A*1A
$GPGGA,224104.90,3724.9152650,N,12204.8236128,W,1,07,4.5,7.56,M,-32.65,M,,*54
$GPRMC,224104.90,A,3724.915,N,12204.824,W,2.4,135.2,290520,,,A*13
$GPGGA,224105.00,3724.9153296,N,12204.8236603,W,1,07,4.5,7.56,M,-32.65,M,,*5D
$GPRMC,224105.00,A,3724.915,N,12204.824,W,2.4,133.5,290520,,,A*63
$GPGGA,224105.10,3724.9153938,N,12204.8237096,W,1,07,6.9,7.56,M,-32.65,M,,*56
$GPRMC,224105.10,A,3724.915,N,12204.824,W,2.4,131.8,290520,,,A*14
$GPGGA,224105.20,3724.9154559,N,12204.8237605,W,1,07,9.2,7.56,M,-32.65,M,,*51
$GPRMC,224105.20,A,3724.915,N,12204.824,W,2.3,130.2,290520,,,A*1B
$GPGGA,224105.30,3724.9155147,N,12204.8238126,W,1,07,11.5,7.56,M,-32.65,M,,*6D
$GPRMC,224105.30,A,3724.916,N,12204.824,W,2.2,128.6,290520,,,A*5F
$GPGGA,224105.40,3724.9155694,N,12204.8238657,W,1,07,13.8,7.56,M,-32.65,M,,*6D
$GPRMC,224105.40,A,3724.916,N,12204.824,W,2.2,127.1,290520,,,A*50
$GPGGA,224105.50,3724.9156193,N,12204.8239193,W,1,07,16.2,7.56,M,-32.65,M,,*6E
$GPRMC,224105.50,A,3724.916,N,12204.824,W,2.1,125.6,290520,,,A*55
$GPGGA,224105.60,3724.9156647,N,12204.8239718,W,1,07,18.5,7.56,M,-32.65,M,,*6F
$GPRMC,224105.60,A,3724.916,N,12204.824,W,1.9,124.3,290520,,,A*5B
$GPGGA,224105.70,3724.9157051,N,12204.8240234,W,1,07,20.8,7.56,M,-32.65,M,,*6D
$GPRMC,224105.70,A,3724.916,N,12204.824,W,1.8,123.1,290520,,,A*5E
$GPGGA,224105.80,3724.9157404,N,12204.8240732,W,1,07,23.2,7.57,M,-32.65,M,,*6D
$GPRMC,224105.80,A,3724.916,N,12204.824,W,1.7,122.1,290520,,,A*5F
$GPGGA,224105.90,3724.9157705,N,12204.8241203,W,1,07,25.5,7.57,M,-32.65,M,,*69
$GPRMC,224105.90,A,3724.916,N,12204.824,W,1.5,121.2,290520,,,A*25
$GPGGA,224106.00,3724.9157955,N,12204.8241637,W,1,06,27.8,7.57,M,-32.65,M,,*65
$GPRMC,224106.00,A,3724.916,N,12204.824,W,1.3,120.4,290520,,,A*2E
$GPGGA,224106.10,3724.9158157,N,12204.8242027,W,1,08,25.4,7.57,M,-32.65,M,,*65
$GPRMC,224106.10,A,3724.916,N,12204.824,W,1.2,119.8,290520,,,A*28
$GPGGA,224106.20,3724.9158307,N,12204.8242371,W,1,08,22.9,7.57,M,-32.65,M,,*6B
$GPRMC,224106.20,A,3724.916,N,12204.824,W,1.0,119.2,290520,,,A*5A
$GPGGA,224106.30,3724.9158405,N,12204.8242662,W,1,08,20.5,7.57,M,-32.65,M,,*66
$GPRMC,224106.30,A,3724.916,N,12204.824,W,0.8,118.8,290520,,,A*20
$GPGGA,224106.40,3724.9158449,N,12204.8242889,W,1,08,18.0,7.57,M,-32.65,M,,*6C
$GPRMC,224106.40,A,3724.916,N,12204.824,W,0.5,118.6,290520,,,A*5B
$GPGGA,224106.50,3724.9158435,N,12204.8243043,W,1,08,15.6,7.57,M,-32.65,M,,*62
$GPRMC,224106.50,A,3724.916,N,12204.824,W,0.4,118.4,290520,,,A*26
$GPGGA,224106.60,3724.9158368,N,12204.8243115,W,1,08,13.1,7.57,M,-32.65,M,,*6D
$GPRMC,224106.60,A,3724.916,N,12204.824,W,0.3,118.4,290520,,,A*5B
$GPGGA,224106.70,3724.9158259,N,12204.8243126,W,1,08,10.7,7.57,M,-32.65,M,,*6A
$GPRMC,224106.70,A,3724.916,N,12204.824,W,0.4,118.4,290520,,,A*5F
$GPGGA,224106.80,3724.9158165,N,12204.8243162,W,1,08,8.2,7.56,M,-32.65,M,,*54
$GPRMC,224106.80,A,3724.916,N,12204.824,W,0.3,118.4,290520,,,A*1F
$GPGGA,224106.90,3724.9158088,N,12204.8243224,W,1,08,5.8,7.56,M,-32.65,M,,*51
$GPRMC,224106.90,A,3724.916,N,12204.824,W,0.3,118.4,290520,,,A*1E
$GPGGA,224107.00,3724.9158008,N,12204.8243264,W,1,08,3.3,7.56,M,-32.65,M,,*58
$GPRMC,224107.00,A,3724.916,N,12204.824,W,0.3,118.4,290520,,,A*16
$GPGGA,224107.10,3724.9157933,N,12204.8243296,W,1,09,3.3,7.56,M,-32.65,M,,*5B
$GPRMC,224107.10,A,3724.916,N,12204.824,W,0.3,118.4,290520,,,A*6E
$GPGGA,224107.20,3724.9157852,N,12204.8243338,W,1,09,3.2,7.56,M,-32.65,M,,*5A
$GPRMC,224107.20,A,3724.916,N,12204.824,W,0.3,118.4,290520,,,A*6F
$GPGGA,224107.30,3724.9157762,N,12204.8243376,W,1,09,3.1,7.56,M,-32.65,M,,*5E
$GPRMC,224107.30,A,3724.916,N,12204.824,W,0.3,118.4,290520,,,A*6E
$GPGGA,224107.40,3724.9157677,N,12204.8243412,W,1,09,3.1,7.56,M,-32.65,M,,*59
$GPRMC,224107.40,A,3724.916,N,12204.824,W,0.3,118.4,290520,,,A*12
$GPGGA,224107.50,3724.9157597,N,12204.8243445,W,1,09,3.0,7.56,M,-32.65,M,,*56
$GPRMC,224107.50,A,3724.916,N,12204.824,W,0.3,118.4,290520,,,A*13
$GPGGA,224107.60,3724.9157518,N,12204.8243468,W,1,09,3.0,7.56,M,-32.65,M,,*5D
$GPRMC,224107.60,A,3724.916,N,12204.824,W,0.3,118.4,290520,,,A*69
$GPGGA,224107.70,3724.9157433,N,12204.8243481,W,1,09,2.9,7.56,M,-32.65,M,,*5B
$GPRMC,224107.70,A,3724.916,N,12204.824,W,0.3,118.4,290520,,,A*68
$GPGGA,224107.80,3724.9157331,N,12204.8243478,W,1,09,2.8,7.57,M,-32.65,M,,*57
$GPRMC,224107.80,A,3724.916,N,12204.824,W,0.4,118.4,290520,,,A*19
$GPGGA,224107.90,3724.9157209,N,12204.8243442,W,1,09,2.8,7.57,M,-32.65,M,,*55
$GPRMC,224107.90,A,3724.916,N,12204.824,W,0.5,118.5,290520,,,A*18
$GPGGA,224108.00,3724.9157075,N,12204.8243368,W,1,09,2.7,7.57,M,-32.65,M,,*5A
$GPRMC,224108.00,A,3724.916,N,12204.824,W,0.5,118.5,290520,,,A*65
$GPGGA,224108.10,3724.9156937,N,12204.8243256,W,1,10,2.6,7.57,M,-32.65,M,,*50
$GPRMC,224108.10,A,3724.916,N,12204.824,W,0.6,118.5,290520,,,A*1C
$GPGGA,224108.20,3724.9156791,N,12204.8243113,W,1,10,2.6,7.57,M,-32.65,M,,*53
$GPRMC,224108.20,A,3724.916,N,12204.824,W,0.7,118.5,290520,,,A*1E
$GPGGA,224108.30,3724.9156635,N,12204.8242939,W,1,10,2.5,7.57,M,-32.65,M,,*5F
$GPRMC,224108.30,A,3724.916,N,12204.824,W,0.8,118.6,290520,,,A*6A
$GPGGA,224108.40,3724.9156473,N,12204.8242724,W,1,10,2.4,7.57,M,-32.65,M,,*5B
$GPRMC,224108.40,A,3724.916,N,12204.824,W,0.9,118.5,290520,,,A*6F
$GPGGA,224108.50,3724.9156301,N,12204.8242461,W,1,10,2.3,7.57,M,-32.65,M,,*5D
$GPRMC,224108.50,A,3724.916,N,12204.824,W,1.1,118.4,290520,,,A*66
$GPGGA,224108.60,3724.9156118,N,12204.8242138,W,1,10,2.3,7.57,M,-32.65,M,,*5D
$GPRMC,224108.60,A,3724.916,N,12204.824,W,1.2,118.4,290520,,,A*66
$GPGGA,224108.70,3724.9155922,N,12204.8241753,W,1,10,2.2,7.57,M,-32.65,M,,*57
$GPRMC,224108.70,A,3724.916,N,12204.824,W,1.4,118.2,290520,,,A*1E
$GPGGA,224108.80,3724.9155715,N,12204.8241306,W,1,10,2.1,7.58,M,-32.65,M,,*5A
$GPRMC,224108.80,A,3724.916,N,12204.824,W,1.6,118.0,290520,,,A*6A
$GPGGA,224108.90,3724.9155503,N,12204.8240800,W,1,10,2.0,7.58,M,-32.65,M,,*53
$GPRMC,224108.90,A,3724.916,N,12204.824,W,1.8,117.8,290520,,,A*19
$GPGGA,224109.00,3724.9155288,N,12204.8240232,W,1,09,1.9,7.58,M,-32.65,M,,*56
$GPRMC,224109.00,A,3724.916,N,12204.824,W,1.9,117.4,290520,,,A*1C
$GPGGA,224109.10,3724.9155072,N,12204.8239606,W,1,09,1.9,7.58,M,-32.65,M,,*5D
$GPRMC,224109.10,A,3724.916,N,12204.824,W,2.1,117.0,290520,,,A*6B
$GPGGA,224109.20,3724.9154858,N,12204.8238923,W,1,09,1.9,7.58,M,-32.65,M,,*56
$GPRMC,224109.20,A,3724.915,N,12204.824,W,2.2,116.5,290520,,,A*15
$GPGGA,224109.30,3724.9154644,N,12204.8238186,W,1,09,1.9,7.58,M,-32.65,M,,*53
$GPRMC,224109.30,A,3724.915,N,12204.824,W,2.4,116.0,290520,,,A*17
$GPGGA,224109.40,3724.9154427,N,12204.8237395,W,1,09,1.9,7.58,M,-32.65,M,,*5C
$GPRMC,224109.40,A,3724.915,N,12204.824,W,2.5,115.4,290520,,,A*69
$GPGGA,224109.50,3724.9154207,N,12204.8236549,W,1,09,1.9,7.59,M,-32.65,M,,*5E
$GPRMC,224109.50,A,3724.915,N,12204.824,W,2.7,114.8,290520,,,A*63
$GPGGA,224109.60,3724.9153979,N,12204.8235639,W,1,09,1.9,7.59,M,-32.65,M,,*5F
$GPRMC,224109.60,A,3724.915,N,12204.824,W,2.9,114.2,290520,,,A*66
$GPGGA,224109.70,3724.9153748,N,12204.8234656,W,1,09,1.9,7.59,M,-32.65,M,,*5A
$GPRMC,224109.70,A,3724.915,N,12204.823,W,3.1,113.4,290520,,,A*6A
$GPGGA,224109.80,3724.9153513,N,12204.8233593,W,1,09,1.9,7.59,M,-32.65,M,,*54
$GPRMC,224109.80,A,3724.915,N,12204.823,W,3.4,112.7,290520,,,A*19
$GPGGA,224109.90,3724.9153279,N,12204.8232448,W,1,09,1.9,7.60,M,-32.65,M,,*52
$GPRMC,224109.90,A,3724.915,N,12204.823,W,3.6,111.9,290520,,,A*17
$GPGGA,224110.00,3724.9153051,N,12204.8231218,W,1,09,1.9,7.60,M,-32.65,M,,*5B
$GPRMC,224110.00,A,3724.915,N,12204.823,W,3.8,111.0,290520,,,A*68
$GPGGA,224110.10,3724.9152828,N,12204.8229901,W,1,09,2.1,7.60,M,-32.65,M,,*5C
$GPRMC,224110.10,A,3724.915,N,12204.823,W,4.1,110.1,290520,,,A*61
$GPGGA,224110.20,3724.9152620,N,12204.8228502,W,1,09,2.3,7.60,M,-32.65,M,,*55
$GPRMC,224110.20,A,3724.915,N,12204.823,W,4.3,109.1,290520,,,A*17
$GPGGA,224110.30,3724.9152429,N,12204.8227026,W,1,09,2.4,7.60,M,-32.65,M,,*54
$GPRMC,224110.30,A,3724.915,N,12204.823,W,4.5,108.1,290520,,,A*11
$GPGGA,224110.40,3724.9152254,N,12204.8225477,W,1,09,2.6,7.61,M,-32.65,M,,*5E
$GPRMC,224110.40,A,3724.915,N,12204.823,W,4.7,107.0,290520,,,A*61
$GPGGA,224110.50,3724.9152097,N,12204.8223855,W,1,09,2.8,7.61,M,-32.65,M,,*56
$GPRMC,224110.50,A,3724.915,N,12204.822,W,4.9,105.9,290520,,,A*1F
$GPGGA,224110.60,3724.9151965,N,12204.8222156,W,1,09,2.9,7.61,M,-32.65,M,,*58
$GPRMC,224110.60,A,3724.915,N,12204.822,W,5.1,104.7,290520,,,A*1A
$GPGGA,224110.70,3724.9151868,N,12204.8220385,W,1,09,3.1,7.62,M,-32.65,M,,*51
$GPRMC,224110.70,A,3724.915,N,12204.822,W,5.3,103.4,290520,,,A*1D
$GPGGA,224110.80,3724.9151809,N,12204.8218545,W,1,09,3.2,7.62,M,-32.65,M,,*5B
$GPRMC,224110.80,A,3724.915,N,12204.822,W,5.5,102.2,290520,,,A*6A
$GPGGA,224110.90,3724.9151779,N,12204.8216639,W,1,09,3.4,7.62,M,-32.65,M,,*52
$GPRMC,224110.90,A,3724.915,N,12204.822,W,5.7,100.8,290520,,,A*18
$GPGGA,224111.00,3724.9151779,N,12204.8214666,W,1,08,3.6,7.63,M,-32.65,M,,*50
$GPRMC,224111.00,A,3724.915,N,12204.821,W,5.9,99.4,290520,,,A*20
$GPGGA,224111.10,3724.9151812,N,12204.8212634,W,1,08,3.8,7.63,M,-32.65,M,,*5C
$GPRMC,224111.10,A,3724.915,N,12204.821,W,6.1,98.0,290520,,,A*50
$GPGGA,224111.20,3724.9151900,N,12204.8210536,W,1,08,4.0,7.64,M,-32.65,M,,*56
$GPRMC,224111.20,A,3724.915,N,12204.821,W,6.3,96.6,290520,,,A*26
$GPGGA,224111.30,3724.9152046,N,12204.8208372,W,1,08,4.2,7.64,M,-32.65,M,,*52
$GPRMC,224111.30,A,3724.915,N,12204.821,W,6.5,95.0,290520,,,A*24
$GPGGA,224111.40,3724.9152243,N,12204.8206157,W,1,08,4.5,7.65,M,-32.65,M,,*5F
$GPRMC,224111.40,A,3724.915,N,12204.821,W,6.6,93.5,290520,,,A*5A
$GPGGA,224111.50,3724.9152480,N,12204.8203897,W,1,08,4.7,7.65,M,-32.65,M,,*55
$GPRMC,224111.50,A,3724.915,N,12204.820,W,6.8,91.8,290520,,,A*22
$GPGGA,224111.60,3724.9152765,N,12204.8201598,W,1,08,4.9,7.66,M,-32.65,M,,*53
$GPRMC,224111.60,A,3724.915,N,12204.820,W,6.9,90.2,290520,,,A*2B
$GPGGA,224111.70,3724.9153128,N,12204.8199265,W,1,08,5.1,7.67,M,-32.65,M,,*53
$GPRMC,224111.70,A,3724.915,N,12204.820,W,7.1,88.6,290520,,,A*2E
$GPGGA,224111.80,3724.9153577,N,12204.8196912,W,1,08,5.3,7.67,M,-32.65,M,,*54
$GPRMC,224111.80,A,3724.915,N,12204.820,W,7.1,87.0,290520,,,A*28
$GPGGA,224111.90,3724.9154085,N,12204.8194538,W,1,08,5.6,7.68,M,-32.65,M,,*56
$GPRMC,224111.90,A,3724.915,N,12204.819,W,7.2,85.5,290520,,,A*27
$GPGGA,224112.00,3724.9154592,N,12204.8192132,W,1,06,5.8,7.68,M,-32.65,M,,*57
$GPRMC,224112.00,A,3724.915,N,12204.819,W,7.3,84.1,290520,,,A*29
$GPGGA,224112.10,3724.9155057,N,12204.8189690,W,1,06,5.8,7.68,M,-32.65,M,,*5E
$GPRMC,224112.10,A,3724.916,N,12204.819,W,7.3,83.0,290520,,,A*56
$GPGGA,224112.20,3724.9155499,N,12204.8187224,W,1,06,5.8,7.68,M,-32.65,M,,*5E
$GPRMC,224112.20,A,3724.916,N,12204.819,W,7.3,82.1,290520,,,A*55
$GPGGA,224112.30,3724.9155962,N,12204.8184758,W,1,06,5.8,7.68,M,-32.65,M,,*5B
$GPRMC,224112.30,A,3724.916,N,12204.818,W,7.3,81.2,290520,,,A*57
$GPGGA,224112.40,3724.9156472,N,12204.8182318,W,1,06,5.8,7.69,M,-32.65,M,,*54
$GPRMC,224112.40,A,3724.916,N,12204.818,W,7.2,80.4,290520,,,A*2F
$GPGGA,224112.50,3724.9157040,N,12204.8179932,W,1,06,5.8,7.69,M,-32.65,M,,*57
$GPRMC,224112.50,A,3724.916,N,12204.818,W,7.1,79.6,290520,,,A*29
$GPGGA,224112.60,3724.9157645,N,12204.8177607,W,1,06,5.8,7.70,M,-32.65,M,,*58
$GPRMC,224112.60,A,3724.916,N,12204.818,W,7.0,78.7,290520,,,A*2B
$GPGGA,224112.70,3724.9158260,N,12204.8175337,W,1,06,5.8,7.70,M,-32.65,M,,*51
$GPRMC,224112.70,A,3724.916,N,12204.818,W,6.9,77.8,290520,,,A*22
$GPGGA,224112.80,3724.9158860,N,12204.8173114,W,1,06,5.8,7.71,M,-32.65,M,,*50
$GPRMC,224112.80,A,3724.916,N,12204.817,W,6.8,76.9,290520,,,A*23
$GPGGA,224112.90,3724.9159443,N,12204.8170929,W,1,06,5.8,7.71,M,-32.65,M,,*58
$GPRMC,224112.90,A,3724.916,N,12204.817,W,6.6,76.1,290520,,,A*24
$GPGGA,224113.00,3724.9160020,N,12204.8168780,W,1,06,5.8,7.71,M,-32.65,M,,*5F
$GPRMC,224113.00,A,3724.916,N,12204.817,W,6.5,75.4,290520,,,A*50
$GPGGA,224113.10,3724.9160596,N,12204.8166667,W,1,06,5.2,7.72,M,-32.65,M,,*59
$GPRMC,224113.10,A,3724.916,N,12204.817,W,6.5,74.8,290520,,,A*25
$GPGGA,224113.20,3724.9161172,N,12204.8164562,W,1,06,4.6,7.72,M,-32.65,M,,*54
$GPRMC,224113.20,A,3724.916,N,12204.816,W,6.4,74.4,290520,,,A*2A
$GPGGA,224113.30,3724.9161745,N,12204.8162453,W,1,06,4.0,7.72,M,-32.65,M,,*54
$GPRMC,224113.30,A,3724.916,N,12204.816,W,6.4,74.0,290520,,,A*2F
$GPGGA,224113.40,3724.9162318,N,12204.8160349,W,1,06,3.5,7.72,M,-32.65,M,,*50
$GPRMC,224113.40,A,3724.916,N,12204.816,W,6.3,73.7,290520,,,A*2F
$GPGGA,224113.50,3724.9162892,N,12204.8158257,W,1,06,2.9,7.72,M,-32.65,M,,*50
$GPRMC,224113.50,A,3724.916,N,12204.816,W,6.3,73.5,290520,,,A*2C
$GPGGA,224113.60,3724.9163460,N,12204.8156180,W,1,06,2.3,7.72,M,-32.65,M,,*5E
$GPRMC,224113.60,A,3724.916,N,12204.816,W,6.3,73.2,290520,,,A*53
$GPGGA,224113.70,3724.9164029,N,12204.8154108,W,1,06,1.7,7.72,M,-32.65,M,,*54
$GPRMC,224113.70,A,3724.916,N,12204.815,W,6.3,73.0,290520,,,A*28
$GPGGA,224113.80,3724.9164603,N,12204.8152046,W,1,06,1.2,7.72,M,-32.65,M,,*5D
$GPRMC,224113.80,A,3724.916,N,12204.815,W,6.2,72.8,290520,,,A*56
$GPGGA,224113.90,3724.9165181,N,12204.8149993,W,1,06,0.6,7.72,M,-32.65,M,,*5E
$GPRMC,224113.90,A,3724.917,N,12204.815,W,6.2,72.6,290520,,,A*5A
$GPGGA,224114.00,3724.9165760,N,12204.8147946,W,1,02,0.0,7.72,M,-32.65,M,,*5D
$GPRMC,224114.00,A,3724.917,N,12204.815,W,6.2,72.4,290520,,,A*54
$GPGGA,224114.10,3724.9166325,N,12204.8145899,W,1,02,0.0,7.72,M,-32.65,M,,*5B
$GPRMC,224114.10,A,3724.917,N,12204.815,W,6.2,72.2,290520,,,A*53
$GPGGA,224114.20,3724.9166890,N,12204.8143847,W,1,02,0.0,7.72,M,-32.65,M,,*58
$GPRMC,224114.20,A,3724.917,N,12204.814,W,6.2,72.0,290520,,,A*2A
$GPGGA,224114.30,3724.9167468,N,12204.8141800,W,1,02,0.0,7.72,M,-32.65,M,,*52
$GPRMC,224114.30,A,3724.917,N,12204.814,W,6.2,71.7,290520,,,A*2F
$GPGGA,224114.40,3724.9168067,N,12204.8139773,W,1,02,0.0,7.72,M,-32.65,M,,*55
$GPRMC,224114.40,A,3724.917,N,12204.814,W,6.2,71.5,290520,,,A*2A
$GPGGA,224114.50,3724.9168684,N,12204.8137761,W,1,02,0.0,7.72,M,-32.65,M,,*52
$GPRMC,224114.50,A,3724.917,N,12204.814,W,6.2,71.2,290520,,,A*2C
$GPGGA,224114.60,3724.9169327,N,12204.8135782,W,1,02,0.0,7.73,M,-32.65,M,,*52
$GPRMC,224114.60,A,3724.917,N,12204.814,W,6.2,70.9,290520,,,A*25
$GPGGA,224114.70,3724.9170008,N,12204.8133822,W,1,02,0.0,7.74,M,-32.65,M,,*51
$GPRMC,224114.70,A,3724.917,N,12204.813,W,6.2,70.5,290520,,,A*2F
$GPGGA,224114.80,3724.9170702,N,12204.8131831,W,1,02,0.0,7.74,M,-32.65,M,,*53
$GPRMC,224114.80,A,3724.917,N,12204.813,W,6.3,69.9,290520,,,A*25
$GPGGA,224114.90,3724.9171413,N,12204.8129816,W,1,02,0.0,7.74,M,-32.65,M,,*5C
$GPRMC,224114.90,A,3724.917,N,12204.813,W,6.4,69.4,290520,,,A*51
$GPGGA,224115.00,3724.9172164,N,12204.8127795,W,1,02,0.0,7.74,M,-32.65,M,,*58
$GPRMC,224115.00,A,3724.917,N,12204.813,W,6.5,68.7,290520,,,A*25
$GPGGA,224115.10,3724.9172964,N,12204.8125778,W,1,02,0.0,7.73,M,-32.65,M,,*57
$GPRMC,224115.10,A,3724.917,N,12204.813,W,6.6,67.8,290520,,,A*27
$GPGGA,224115.20,3724.9173819,N,12204.8123768,W,1,02,0.0,7.73,M,-32.65,M,,*59
$GPRMC,224115.20,A,3724.917,N,12204.812,W,6.6,66.8,290520,,,A*24
$GPGGA,224115.30,3724.9174741,N,12204.8121775,W,1,02,0.0,7.73,M,-32.65,M,,*53
$GPRMC,224115.30,A,3724.917,N,12204.812,W,6.7,65.8,290520,,,A*27
$GPGGA,224115.40,3724.9175731,N,12204.8119835,W,1,02,0.0,7.74,M,-32.65,M,,*55
$GPRMC,224115.40,A,3724.918,N,12204.812,W,6.7,64.7,290520,,,A*21
$GPGGA,224115.50,3724.9176795,N,12204.8117950,W,1,02,0.0,7.76,M,-32.65,M,,*57
$GPRMC,224115.50,A,3724.918,N,12204.812,W,6.8,63.5,290520,,,A*2A
$GPGGA,224115.60,3724.9177881,N,12204.8116053,W,1,02,0.0,7.76,M,-32.65,M,,*54
$GPRMC,224115.60,A,3724.918,N,12204.812,W,6.9,62.2,290520,,,A*2E
$GPGGA,224115.70,3724.9178967,N,12204.8114106,W,1,02,0.0,7.76,M,-32.65,M,,*50
$GPRMC,224115.70,A,3724.918,N,12204.811,W,7.0,60.8,290520,,,A*2C
$GPGGA,224115.80,3724.9180103,N,12204.8112158,W,1,02,0.0,7.76,M,-32.65,M,,*5F
$GPRMC,224115.80,A,3724.918,N,12204.811,W,7.1,59.5,290520,,,A*5C
$GPGGA,224115.90,3724.9181325,N,12204.8110235,W,1,02,0.0,7.75,M,-32.65,M,,*50
$GPRMC,224115.90,A,3724.918,N,12204.811,W,7.2,58.0,290520,,,A*23
$GPGGA,224116.00,3724.9182634,N,12204.8108343,W,1,02,0.0,7.75,M,-32.65,M,,*55
$GPRMC,224116.00,A,3724.918,N,12204.811,W,7.3,56.4,290520,,,A*22
$GPGGA,224116.10,3724.9184018,N,12204.8106486,W,1,02,0.0,7.75,M,-32.65,M,,*5A
$GPRMC,224116.10,A,3724.918,N,12204.811,W,7.4,54.8,290520,,,A*51
$GPGGA,224116.20,3724.9185483,N,12204.8104671,W,1,02,0.0,7.76,M,-32.65,M,,*55
$GPRMC,224116.20,A,3724.919,N,12204.810,W,7.5,53.3,290520,,,A*24
$GPGGA,224116.30,3724.9187004,N,12204.8102893,W,1,02,0.0,7.76,M,-32.65,M,,*59
$GPRMC,224116.30,A,3724.919,N,12204.810,W,7.7,51.7,290520,,,A*21
$GPGGA,224116.40,3724.9188580,N,12204.8101126,W,1,02,0.0,7.76,M,-32.65,M,,*5C
$GPRMC,224116.40,A,3724.919,N,12204.810,W,7.8,49.9,290520,,,A*51
$GPGGA,224116.50,3724.9190216,N,12204.8099374,W,1,02,0.0,7.76,M,-32.65,M,,*59
$GPRMC,224116.50,A,3724.919,N,12204.810,W,7.9,48.2,290520,,,A*24
$GPGGA,224116.60,3724.9191919,N,12204.8097652,W,1,02,0.0,7.76,M,-32.65,M,,*50
$GPRMC,224116.60,A,3724.919,N,12204.810,W,8.1,46.5,290520,,,A*29
$GPGGA,224116.70,3724.9193697,N,12204.8095976,W,1,02,0.0,7.77,M,-32.65,M,,*50
$GPRMC,224116.70,A,3724.919,N,12204.810,W,8.2,44.7,290520,,,A*2B
$GPGGA,224116.80,3724.9195553,N,12204.8094351,W,1,02,0.0,7.77,M,-32.65,M,,*5C
$GPRMC,224116.80,A,3724.920,N,12204.809,W,8.3,42.9,290520,,,A*50
$GPGGA,224116.90,3724.9197489,N,12204.8092779,W,1,02,0.0,7.77,M,-32.65,M,,*51
$GPRMC,224116.90,A,3724.920,N,12204.809,W,8.5,41.1,290520,,,A*23
$GPGGA,224117.00,3724.9199502,N,12204.8091268,W,1,01,0.0,7.77,M,-32.65,M,,*50
$GPRMC,224117.00,A,3724.920,N,12204.809,W,8.6,39.3,290520,,,A*25
$GPGGA,224117.10,3724.9201583,N,12204.8089829,W,1,01,0.0,7.77,M,-32.65,M,,*5C
$GPRMC,224117.10,A,3724.920,N,12204.809,W,8.7,37.4,290520,,,A*53
$GPGGA,224117.20,3724.9203727,N,12204.8088463,W,1,01,0.0,7.77,M,-32.65,M,,*52
$GPRMC,224117.20,A,3724.920,N,12204.809,W,8.9,35.5,290520,,,A*22
$GPGGA,224117.30,3724.9205935,N,12204.8087175,W,1,01,0.0,7.78,M,-32.65,M,,*5A
$GPRMC,224117.30,A,3724.921,N,12204.809,W,9.0,33.5,290520,,,A*57
$GPGGA,224117.40,3724.9208215,N,12204.8085965,W,1,01,0.0,7.78,M,-32.65,M,,*52
$GPRMC,224117.40,A,3724.921,N,12204.809,W,9.1,31.6,290520,,,A*2B
$GPGGA,224117.50,3724.9210560,N,12204.8084833,W,1,01,0.0,7.78,M,-32.65,M,,*5C
$GPRMC,224117.50,A,3724.921,N,12204.808,W,9.2,29.6,290520,,,A*5E
$GPGGA,224117.60,3724.9212951,N,12204.8083782,W,1,01,0.0,7.77,M,-32.65,M,,*5E
$GPRMC,224117.60,A,3724.921,N,12204.808,W,9.4,27.6,290520,,,A*51
$GPGGA,224117.70,3724.9215418,N,12204.8082842,W,1,01,0.0,7.77,M,-32.65,M,,*5A
$GPRMC,224117.70,A,3724.922,N,12204.808,W,9.5,25.6,290520,,,A*50
$GPGGA,224117.80,3724.9217943,N,12204.8081998,W,1,01,0.0,7.76,M,-32.65,M,,*50
$GPRMC,224117.80,A,3724.922,N,12204.808,W,9.6,23.6,290520,,,A*21
$GPGGA,224117.90,3724.9220513,N,12204.8081252,W,1,01,0.0,7.76,M,-32.65,M,,*51
$GPRMC,224117.90,A,3724.922,N,12204.808,W,9.6,21.6,290520,,,A*22
$GPGGA,224118.00,3724.9223123,N,12204.8080580,W,1,00,0.0,7.75,M,-32.65,M,,*58
$GPRMC,224118.00,A,3724.922,N,12204.808,W,9.8,19.8,290520,,,A*2F
$GPGGA,224118.10,3724.9225778,N,12204.8079968,W,1,08,0.3,7.75,M,-32.65,M,,*50
$GPRMC,224118.10,A,3724.923,N,12204.808,W,10.0,18.0,290520,,,A*16
$GPGGA,224118.20,3724.9228493,N,12204.8079415,W,1,08,0.6,7.74,M,-32.65,M,,*5B
$GPRMC,224118.20,A,3724.923,N,12204.808,W,10.1,16.3,290520,,,A*60
$GPGGA,224118.30,3724.9231256,N,12204.8078942,W,1,08,0.8,7.73,M,-32.65,M,,*5A
$GPRMC,224118.30,A,3724.923,N,12204.808,W,10.3,14.7,290520,,,A*67
$GPGGA,224118.40,3724.9234069,N,12204.8078549,W,1,08,1.1,7.73,M,-32.65,M,,*59
$GPRMC,224118.40,A,3724.923,N,12204.808,W,10.4,13.2,290520,,,A*1E
$GPGGA,224118.50,3724.9236926,N,12204.8078206,W,1,08,1.4,7.72,M,-32.65,M,,*50
$GPRMC,224118.50,A,3724.924,N,12204.808,W,10.5,11.9,290520,,,A*10
$GPGGA,224118.60,3724.9239819,N,12204.8077898,W,1,08,1.7,7.72,M,-32.65,M,,*50
$GPRMC,224118.60,A,3724.924,N,12204.808,W,10.7,10.7,290520,,,A*1E
$GPGGA,224118.70,3724.9242753,N,12204.8077603,W,1,08,2.0,7.71,M,-32.65,M,,*57
$GPRMC,224118.70,A,3724.924,N,12204.808,W,10.8,9.7,290520,,,A*28
$GPGGA,224118.80,3724.9245730,N,12204.8077328,W,1,08,2.3,7.70,M,-32.65,M,,*54
$GPRMC,224118.80,A,3724.925,N,12204.808,W,10.9,8.8,290520,,,A*29
$GPGGA,224118.90,3724.9248748,N,12204.8077073,W,1,08,2.5,7.70,M,-32.65,M,,*5C
$GPRMC,224118.90,A,3724.925,N,12204.808,W,11.1,8.0,290520,,,A*56
$GPGGA,224119.00,3724.9251817,N,12204.8076841,W,1,08,2.8,7.69,M,-32.65,M,,*54
$GPRMC,224119.00,A,3724.925,N,12204.808,W,11.2,7.3,290520,,,A*2E
$GPGGA,224119.10,3724.9254912,N,12204.8076648,W,1,08,2.8,7.69,M,-32.65,M,,*53
$GPRMC,224119.10,A,3724.925,N,12204.808,W,11.3,6.7,290520,,,A*2B
$GPGGA,224119.20,3724.9258053,N,12204.8076488,W,1,08,2.8,7.68,M,-32.65,M,,*5F
$GPRMC,224119.20,A,3724.926,N,12204.808,W,11.4,6.2,290520,,,A*50
$GPGGA,224119.30,3724.9261234,N,12204.8076352,W,1,08,2.8,7.67,M,-32.65,M,,*58
$GPRMC,224119.30,A,3724.926,N,12204.808,W,11.6,5.7,290520,,,A*2C
$GPGGA,224119.40,3724.9264460,N,12204.8076213,W,1,08,2.8,7.67,M,-32.65,M,,*59
$GPRMC,224119.40,A,3724.926,N,12204.808,W,11.7,5.3,290520,,,A*2E
$GPGGA,224119.50,3724.9267710,N,12204.8076069,W,1,08,2.8,7.67,M,-32.65,M,,*50
$GPRMC,224119.50,A,3724.927,N,12204.808,W,11.8,5.0,290520,,,A*22
$GPGGA,224119.60,3724.9270996,N,12204.8075941,W,1,08,2.8,7.66,M,-32.65,M,,*54
$GPRMC,224119.60,A,3724.927,N,12204.808,W,11.9,4.7,290520,,,A*26
$GPGGA,224119.70,3724.9274321,N,12204.8075838,W,1,08,2.8,7.66,M,-32.65,M,,*58
$GPRMC,224119.70,A,3724.927,N,12204.808,W,12.1,4.4,290520,,,A*2F
$GPGGA,224119.80,3724.9277685,N,12204.8075755,W,1,08,2.8,7.65,M,-32.65,M,,*58
$GPRMC,224119.80,A,3724.928,N,12204.808,W,12.2,4.2,290520,,,A*2A
$GPGGA,224119.90,3724.9281088,N,12204.8075693,W,1,08,2.8,7.65,M,-32.65,M,,*50
$GPRMC,224119.90,A,3724.928,N,12204.808,W,12.3,3.9,290520,,,A*26
$GPGGA,224120.00,3724.9284537,N,12204.8075635,W,1,08,2.8,7.64,M,-32.65,M,,*5A
$GPRMC,224120.00,A,3724.928,N,12204.808,W,12.4,3.8,290520,,,A*58
$GPGGA,224120.10,3724.9288023,N,12204.8075565,W,1,11,2.7,7.63,M,-32.65,M,,*51
$GPRMC,224120.10,A,3724.929,N,12204.808,W,12.6,3.7,290520,,,A*2E
$GPGGA,224120.20,3724.9291553,N,12204.8075465,W,1,11,2.6,7.62,M,-32.65,M,,*59
$GPRMC,224120.20,A,3724.929,N,12204.808,W,12.7,3.8,290520,,,A*23
$GPGGA,224120.30,3724.9295127,N,12204.8075358,W,1,11,2.6,7.61,M,-32.65,M,,*51
$GPRMC,224120.30,A,3724.930,N,12204.808,W,12.8,3.9,290520,,,A*24
$GPGGA,224120.40,3724.9298735,N,12204.8075250,W,1,11,2.5,7.60,M,-32.65,M,,*55
$GPRMC,224120.40,A,3724.930,N,12204.808,W,13.0,3.9,290520,,,A*2A
$GPGGA,224120.50,3724.9302378,N,12204.8075130,W,1,11,2.4,7.59,M,-32.65,M,,*55
$GPRMC,224120.50,A,3724.930,N,12204.808,W,13.1,4.0,290520,,,A*24
$GPGGA,224120.60,3724.9306049,N,12204.8075009,W,1,11,2.3,7.58,M,-32.65,M,,*5E
$GPRMC,224120.60,A,3724.931,N,12204.808,W,13.2,4.0,290520,,,A*5E
$GPGGA,224120.70,3724.9309750,N,12204.8074874,W,1,11,2.2,7.57,M,-32.65,M,,*52
$GPRMC,224120.70,A,3724.931,N,12204.807,W,13.4,4.2,290520,,,A*2F
$GPGGA,224120.80,3724.9313496,N,12204.8074726,W,1,11,2.1,7.56,M,-32.65,M,,*55
$GPRMC,224120.80,A,3724.931,N,12204.807,W,13.5,4.3,290520,,,A*20
$GPGGA,224120.90,3724.9317279,N,12204.8074556,W,1,11,2.0,7.55,M,-32.65,M,,*50
$GPRMC,224120.90,A,3724.932,N,12204.807,W,13.6,4.4,290520,,,A*26
$GPGGA,224121.00,3724.9321106,N,12204.8074374,W,1,11,1.9,7.54,M,-32.65,M,,*5B
$GPRMC,224121.00,A,3724.932,N,12204.807,W,13.8,4.5,290520,,,A*58
$GPGGA,224121.10,3724.9324971,N,12204.8074204,W,1,11,1.9,7.53,M,-32.65,M,,*56
$GPRMC,224121.10,A,3724.932,N,12204.807,W,13.9,4.6,290520,,,A*22
$GPGGA,224121.20,3724.9328878,N,12204.8074035,W,1,11,1.9,7.52,M,-32.65,M,,*50
$GPRMC,224121.20,A,3724.933,N,12204.807,W,14.0,4.7,290520,,,A*2F
$GPGGA,224121.30,3724.9332849,N,12204.8073885,W,1,11,1.9,7.51,M,-32.65,M,,*5F
$GPRMC,224121.30,A,3724.933,N,12204.807,W,14.1,4.8,290520,,,A*59
$GPGGA,224121.40,3724.9336881,N,12204.8073774,W,1,11,1.9,7.49,M,-32.65,M,,*50
$GPRMC,224121.40,A,3724.934,N,12204.807,W,14.2,4.9,290520,,,A*22
$GPGGA,224121.50,3724.9340939,N,12204.8073682,W,1,11,1.9,7.48,M,-32.65,M,,*5B
$GPRMC,224121.50,A,3724.934,N,12204.807,W,14.3,5.0,290520,,,A*53
$GPGGA,224121.60,3724.9344989,N,12204.8073528,W,1,11,1.9,7.46,M,-32.65,M,,*5A
$GPRMC,224121.60,A,3724.934,N,12204.807,W,14.4,5.1,290520,,,A*54
$GPGGA,224121.70,3724.9349036,N,12204.8073328,W,1,11,1.9,7.45,M,-32.65,M,,*5E
$GPRMC,224121.70,A,3724.935,N,12204.807,W,14.5,5.3,290520,,,A*57
$GPGGA,224121.80,3724.9353092,N,12204.8073112,W,1,11,1.9,7.43,M,-32.65,M,,*59
$GPRMC,224121.80,A,3724.935,N,12204.807,W,14.5,5.4,290520,,,A*24
$GPGGA,224121.90,3724.9357160,N,12204.8072869,W,1,11,1.9,7.42,M,-32.65,M,,*55
$GPRMC,224121.90,A,3724.936,N,12204.807,W,14.6,5.5,290520,,,A*24
$GPGGA,224122.00,3724.9361231,N,12204.8072607,W,1,11,1.9,7.42,M,-32.65,M,,*5B
$GPRMC,224122.00,A,3724.936,N,12204.807,W,14.7,5.6,290520,,,A*55
$GPGGA,224122.10,3724.9365290,N,12204.8072383,W,1,11,2.0,7.42,M,-32.65,M,,*56
$GPRMC,224122.10,A,3724.937,N,12204.807,W,14.7,5.7,290520,,,A*2D
$GPGGA,224122.20,3724.9369366,N,12204.8072149,W,1,11,2.1,7.42,M,-32.65,M,,*54
$GPRMC,224122.20,A,3724.937,N,12204.807,W,14.8,5.8,290520,,,A*2E
$GPGGA,224122.30,3724.9373468,N,12204.8071848,W,1,11,2.3,7.41,M,-32.65,M,,*5D
$GPRMC,224122.30,A,3724.937,N,12204.807,W,14.8,5.9,290520,,,A*57
$GPGGA,224122.40,3724.9377592,N,12204.8071541,W,1,11,2.4,7.41,M,-32.65,M,,*59
$GPRMC,224122.40,A,3724.938,N,12204.807,W,14.7,6.0,290520,,,A*23
$GPGGA,224122.50,3724.9381732,N,12204.8071261,W,1,11,2.5,7.40,M,-32.65,M,,*5C
$GPRMC,224122.50,A,3724.938,N,12204.807,W,14.8,6.2,290520,,,A*50
$GPGGA,224122.60,3724.9385864,N,12204.8070946,W,1,11,2.6,7.39,M,-32.65,M,,*55
$GPRMC,224122.60,A,3724.939,N,12204.807,W,14.9,6.2,290520,,,A*2C
$GPGGA,224122.70,3724.9389992,N,12204.8070603,W,1,11,2.7,7.38,M,-32.65,M,,*5E
$GPRMC,224122.70,A,3724.939,N,12204.807,W,14.9,6.2,290520,,,A*56
$GPGGA,224122.80,3724.9394127,N,12204.8070281,W,1,11,2.8,7.37,M,-32.65,M,,*55
$GPRMC,224122.80,A,3724.939,N,12204.807,W,14.9,6.2,290520,,,A*22
$GPGGA,224122.90,3724.9398272,N,12204.8070003,W,1,11,2.9,7.37,M,-32.65,M,,*52
$GPRMC,224122.90,A,3724.940,N,12204.807,W,14.9,6.2,290520,,,A*2D
$GPGGA,224123.00,3724.9402431,N,12204.8069739,W,1,09,3.0,7.36,M,-32.65,M,,*59
$GPRMC,224123.00,A,3724.940,N,12204.807,W,14.9,6.2,290520,,,A*25
$GPGGA,224123.10,3724.9406595,N,12204.8069465,W,1,09,3.2,7.35,M,-32.65,M,,*58
$GPRMC,224123.10,A,3724.941,N,12204.807,W,14.9,6.2,290520,,,A*25
$GPGGA,224123.20,3724.9410773,N,12204.8069167,W,1,09,3.5,7.33,M,-32.65,M,,*50
$GPRMC,224123.20,A,3724.941,N,12204.807,W,15.0,6.2,290520,,,A*2E
$GPGGA,224123.30,3724.9414966,N,12204.8068877,W,1,09,3.7,7.31,M,-32.65,M,,*56
$GPRMC,224123.30,A,3724.941,N,12204.807,W,15.0,6.2,290520,,,A*2F
$GPGGA,224123.40,3724.9419152,N,12204.8068606,W,1,09,3.9,7.29,M,-32.65,M,,*5C
$GPRMC,224123.40,A,3724.942,N,12204.807,W,15.0,6.2,290520,,,A*54
$GPGGA,224123.50,3724.9423320,N,12204.8068305,W,1,09,4.2,7.28,M,-32.65,M,,*58
$GPRMC,224123.50,A,3724.942,N,12204.807,W,15.1,6.2,290520,,,A*2B
$GPGGA,224123.60,3724.9427447,N,12204.8068005,W,1,09,4.4,7.29,M,-32.65,M,,*5D
$GPRMC,224123.60,A,3724.943,N,12204.807,W,15.1,6.1,290520,,,A*53
$GPGGA,224123.70,3724.9431567,N,12204.8067743,W,1,09,4.6,7.29,M,-32.65,M,,*50
$GPRMC,224123.70,A,3724.943,N,12204.807,W,15.1,6.1,290520,,,A*2B
$GPGGA,224123.80,3724.9435741,N,12204.8067529,W,1,09,4.9,7.29,M,-32.65,M,,*5C
$GPRMC,224123.80,A,3724.944,N,12204.807,W,15.0,6.0,290520,,,A*5C
$GPGGA,224123.90,3724.9439941,N,12204.8067307,W,1,09,5.1,7.28,M,-32.65,M,,*5D
$GPRMC,224123.90,A,3724.944,N,12204.807,W,15.0,5.9,290520,,,A*51
$GPGGA,224124.00,3724.9444148,N,12204.8067060,W,1,08,5.4,7.27,M,-32.65,M,,*51
$GPRMC,224124.00,A,3724.944,N,12204.807,W,15.0,5.8,290520,,,A*27
$GPGGA,224124.10,3724.9448314,N,12204.8066836,W,1,08,5.5,7.27,M,-32.65,M,,*5C
$GPRMC,224124.10,A,3724.945,N,12204.807,W,15.0,5.7,290520,,,A*57
$GPGGA,224124.20,3724.9452466,N,12204.8066654,W,1,08,5.7,7.26,M,-32.65,M,,*5F
$GPRMC,224124.20,A,3724.945,N,12204.807,W,15.0,5.6,290520,,,A*53
$GPGGA,224124.30,3724.9456636,N,12204.8066510,W,1,08,5.9,7.25,M,-32.65,M,,*53
$GPRMC,224124.30,A,3724.946,N,12204.807,W,15.0,5.4,290520,,,A*2A
$GPGGA,224124.40,3724.9460827,N,12204.8066352,W,1,08,6.1,7.24,M,-32.65,M,,*55
$GPRMC,224124.40,A,3724.946,N,12204.807,W,15.0,5.2,290520,,,A*2B
$GPGGA,224124.50,3724.9465018,N,12204.8066172,W,1,08,6.3,7.22,M,-32.65,M,,*51
$GPRMC,224124.50,A,3724.947,N,12204.807,W,15.0,5.1,290520,,,A*28
$GPGGA,224124.60,3724.9469183,N,12204.8065999,W,1,08,6.4,7.22,M,-32.65,M,,*54
$GPRMC,224124.60,A,3724.947,N,12204.807,W,15.0,4.9,290520,,,A*22
$GPGGA,224124.70,3724.9473310,N,12204.8065878,W,1,08,6.6,7.22,M,-32.65,M,,*5A
$GPRMC,224124.70,A,3724.947,N,12204.807,W,15.0,4.9,290520,,,A*58
$GPGGA,224124.80,3724.9477428,N,12204.8065798,W,1,08,6.8,7.23,M,-32.65,M,,*53
$GPRMC,224124.80,A,3724.948,N,12204.807,W,15.0,4.8,290520,,,A*22
$GPGGA,224124.90,3724.9481541,N,12204.8065665,W,1,08,7.0,7.25,M,-32.65,M,,*59
$GPRMC,224124.90,A,3724.948,N,12204.807,W,15.0,4.7,290520,,,A*2C
$GPGGA,224125.00,3724.9485717,N,12204.8065517,W,1,05,7.2,7.24,M,-32.65,M,,*5C
$GPRMC,224125.00,A,3724.949,N,12204.807,W,14.8,4.5,290520,,,A*51
$GPGGA,224125.10,3724.9489882,N,12204.8065399,W,1,05,6.5,7.23,M,-32.65,M,,*53
$GPRMC,224125.10,A,3724.949,N,12204.807,W,14.8,4.5,290520,,,A*2F
$GPGGA,224125.20,3724.9494036,N,12204.8065302,W,1,05,5.7,7.23,M,-32.65,M,,*58
$GPRMC,224125.20,A,3724.949,N,12204.807,W,14.8,4.5,290520,,,A*2C
$GPGGA,224125.30,3724.9498140,N,12204.8065226,W,1,05,5.0,7.23,M,-32.65,M,,*55
$GPRMC,224125.30,A,3724.950,N,12204.807,W,14.9,4.4,290520,,,A*25
$GPGGA,224125.40,3724.9502212,N,12204.8065159,W,1,05,4.3,7.23,M,-32.65,M,,*5D
$GPRMC,224125.40,A,3724.950,N,12204.807,W,14.8,4.3,290520,,,A*5D
$GPGGA,224125.50,3724.9506328,N,12204.8065061,W,1,05,3.6,7.23,M,-32.65,M,,*58
$GPRMC,224125.50,A,3724.951,N,12204.807,W,14.8,4.1,290520,,,A*26
$GPGGA,224125.60,3724.9510455,N,12204.8064953,W,1,05,2.9,7.22,M,-32.65,M,,*57
$GPRMC,224125.60,A,3724.951,N,12204.806,W,14.7,4.1,290520,,,A*2B
$GPGGA,224125.70,3724.9514574,N,12204.8064872,W,1,05,2.1,7.22,M,-32.65,M,,*5A
$GPRMC,224125.70,A,3724.951,N,12204.806,W,14.7,4.1,290520,,,A*51
$GPGGA,224125.80,3724.9518668,N,12204.8064799,W,1,05,1.4,7.22,M,-32.65,M,,*5B
$GPRMC,224125.80,A,3724.952,N,12204.806,W,14.8,4.0,290520,,,A*51
$GPGGA,224125.90,3724.9522734,N,12204.8064721,W,1,05,0.7,7.22,M,-32.65,M,,*5A
$GPRMC,224125.90,A,3724.952,N,12204.806,W,14.8,3.9,290520,,,A*5C
$GPGGA,224126.00,3724.9526812,N,12204.8064641,W,1,00,0.0,7.22,M,-32.65,M,,*5A
$GPRMC,224126.00,A,3724.953,N,12204.806,W,14.7,3.9,290520,,,A*58
$GPGGA,224126.10,3724.9530910,N,12204.8064578,W,1,00,0.0,7.22,M,-32.65,M,,*56
$GPRMC,224126.10,A,3724.953,N,12204.806,W,14.7,3.8,290520,,,A*23
$GPGGA,224126.20,3724.9535009,N,12204.8064534,W,1,00,0.0,7.21,M,-32.65,M,,*5A
$GPRMC,224126.20,A,3724.954,N,12204.806,W,14.7,3.7,290520,,,A*53
$GPGGA,224126.30,3724.9539096,N,12204.8064503,W,1,00,0.0,7.21,M,-32.65,M,,*55
$GPRMC,224126.30,A,3724.954,N,12204.806,W,14.7,3.6,290520,,,A*28
$GPGGA,224126.40,3724.9543165,N,12204.8064494,W,1,00,0.0,7.21,M,-32.65,M,,*5D
$GPRMC,224126.40,A,3724.954,N,12204.806,W,14.7,3.6,290520,,,A*56
$GPGGA,224126.50,3724.9547240,N,12204.8064481,W,1,00,0.0,7.20,M,-32.65,M,,*59
$GPRMC,224126.50,A,3724.955,N,12204.806,W,14.7,3.5,290520,,,A*2C
$GPGGA,224126.60,3724.9551336,N,12204.8064462,W,1,00,0.0,7.18,M,-32.65,M,,*5B
$GPRMC,224126.60,A,3724.955,N,12204.806,W,14.6,3.4,290520,,,A*56
$GPGGA,224126.70,3724.9555423,N,12204.8064457,W,1,00,0.0,7.17,M,-32.65,M,,*54
$GPRMC,224126.70,A,3724.956,N,12204.806,W,14.7,3.4,290520,,,A*2C
$GPGGA,224126.80,3724.9559492,N,12204.8064481,W,1,00,0.0,7.17,M,-32.65,M,,*56
$GPRMC,224126.80,A,3724.956,N,12204.806,W,14.7,3.3,290520,,,A*24
$GPGGA,224126.90,3724.9563550,N,12204.8064535,W,1,00,0.0,7.17,M,-32.65,M,,*5F
$GPRMC,224126.90,A,3724.956,N,12204.806,W,14.7,3.2,290520,,,A*5D
$GPGGA,224127.00,3724.9567607,N,12204.8064581,W,1,00,0.0,7.16,M,-32.65,M,,*5C
$GPRMC,224127.00,A,3724.957,N,12204.806,W,14.7,3.1,290520,,,A*51
$GPGGA,224127.10,3724.9571647,N,12204.8064571,W,1,00,0.0,7.17,M,-32.65,M,,*50
$GPRMC,224127.10,A,3724.957,N,12204.806,W,14.6,3.1,290520,,,A*2E
$GPGGA,224127.20,3724.9575672,N,12204.8064568,W,1,00,0.0,7.19,M,-32.65,M,,*57
$GPRMC,224127.20,A,3724.958,N,12204.806,W,14.6,3.1,290520,,,A*22
$GPGGA,224127.30,3724.9579708,N,12204.8064583,W,1,00,0.0,7.19,M,-32.65,M,,*53
$GPRMC,224127.30,A,3724.958,N,12204.806,W,14.6,3.2,290520,,,A*20
$GPGGA,224127.40,3724.9583758,N,12204.8064586,W,1,00,0.0,7.19,M,-32.65,M,,*51
$GPRMC,224127.40,A,3724.958,N,12204.806,W,14.5,3.1,290520,,,A*27
$GPGGA,224127.50,3724.9587832,N,12204.8064568,W,1,00,0.0,7.18,M,-32.65,M,,*56
$GPRMC,224127.50,A,3724.959,N,12204.806,W,14.5,3.1,290520,,,A*27
$GPGGA,224127.60,3724.9591883,N,12204.8064555,W,1,00,0.0,7.17,M,-32.65,M,,*59
$GPRMC,224127.60,A,3724.959,N,12204.806,W,14.5,3.1,290520,,,A*24
$GPGGA,224127.70,3724.9595895,N,12204.8064539,W,1,00,0.0,7.17,M,-32.65,M,,*51
$GPRMC,224127.70,A,3724.960,N,12204.806,W,14.5,3.2,290520,,,A*2C
$GPGGA,224127.80,3724.9599895,N,12204.8064507,W,1,00,0.0,7.17,M,-32.65,M,,*5F
$GPRMC,224127.80,A,3724.960,N,12204.806,W,14.5,3.2,290520,,,A*5A
$GPGGA,224127.90,3724.9603901,N,12204.8064462,W,1,00,0.0,7.17,M,-32.65,M,,*50
$GPRMC,224127.90,A,3724.960,N,12204.806,W,14.5,3.4,290520,,,A*24
$GPGGA,224128.00,3724.9607918,N,12204.8064399,W,1,00,0.0,7.16,M,-32.65,M,,*58
$GPRMC,224128.00,A,3724.961,N,12204.806,W,14.4,3.5,290520,,,A*23
$GPGGA,224128.10,3724.9611927,N,12204.8064289,W,1,00,0.0,7.16,M,-32.65,M,,*52
$GPRMC,224128.10,A,3724.961,N,12204.806,W,14.4,3.7,290520,,,A*20
$GPGGA,224128.20,3724.9615892,N,12204.8064149,W,1,00,0.0,7.15,M,-32.65,M,,*56
$GPRMC,224128.20,A,3724.962,N,12204.806,W,14.2,3.9,290520,,,A*28
$GPGGA,224128.30,3724.9619807,N,12204.8063997,W,1,00,0.0,7.15,M,-32.65,M,,*5B
$GPRMC,224128.30,A,3724.962,N,12204.806,W,14.1,4.2,290520,,,A*5F
$GPGGA,224128.40,3724.9623683,N,12204.8063832,W,1,00,0.0,7.14,M,-32.65,M,,*58
$GPRMC,224128.40,A,3724.962,N,12204.806,W,13.9,4.5,290520,,,A*29
$GPGGA,224128.50,3724.9627518,N,12204.8063635,W,1,00,0.0,7.13,M,-32.65,M,,*52
$GPRMC,224128.50,A,3724.963,N,12204.806,W,13.8,4.7,290520,,,A*2A
$GPGGA,224128.60,3724.9631308,N,12204.8063407,W,1,00,0.0,7.13,M,-32.65,M,,*52
$GPRMC,224128.60,A,3724.963,N,12204.806,W,13.6,5.0,290520,,,A*21
$GPGGA,224128.70,3724.9635051,N,12204.8063161,W,1,00,0.0,7.12,M,-32.65,M,,*5C
$GPRMC,224128.70,A,3724.964,N,12204.806,W,13.5,5.2,290520,,,A*59
$GPGGA,224128.80,3724.9638753,N,12204.8062918,W,1,00,0.0,7.12,M,-32.65,M,,*5C
$GPRMC,224128.80,A,3724.964,N,12204.806,W,13.4,5.4,290520,,,A*51
$GPGGA,224128.90,3724.9642427,N,12204.8062668,W,1,00,0.0,7.11,M,-32.65,M,,*5B
$GPRMC,224128.90,A,3724.964,N,12204.806,W,13.3,5.6,290520,,,A*53
$GPGGA,224129.00,3724.9646078,N,12204.8062400,W,1,00,0.0,7.10,M,-32.65,M,,*54
$GPRMC,224129.00,A,3724.965,N,12204.806,W,13.2,5.7,290520,,,A*23
$GPGGA,224129.10,3724.9649712,N,12204.8062117,W,1,00,0.0,7.09,M,-32.65,M,,*5A
$GPRMC,224129.10,A,3724.965,N,12204.806,W,13.1,5.8,290520,,,A*55
$GPGGA,224129.20,3724.9653337,N,12204.8061850,W,1,00,0.0,7.08,M,-32.65,M,,*59
$GPRMC,224129.20,A,3724.965,N,12204.806,W,13.1,5.9,290520,,,A*2C
$GPGGA,224129.30,3724.9656955,N,12204.8061583,W,1,00,0.0,7.07,M,-32.65,M,,*5F
$GPRMC,224129.30,A,3724.966,N,12204.806,W,13.1,6.0,290520,,,A*5D
$GPGGA,224129.40,3724.9660577,N,12204.8061313,W,1,00,0.0,7.06,M,-32.65,M,,*5F
$GPRMC,224129.40,A,3724.966,N,12204.806,W,13.2,6.0,290520,,,A*59
$GPGGA,224129.50,3724.9664204,N,12204.8061057,W,1,00,0.0,7.04,M,-32.65,M,,*58
$GPRMC,224129.50,A,3724.966,N,12204.806,W,13.2,6.0,290520,,,A*21
$GPGGA,224129.60,3724.9667829,N,12204.8060820,W,1,00,0.0,7.03,M,-32.65,M,,*53
$GPRMC,224129.60,A,3724.967,N,12204.806,W,13.2,6.1,290520,,,A*22
$GPGGA,224129.70,3724.9671455,N,12204.8060601,W,1,00,0.0,7.02,M,-32.65,M,,*5E
$GPRMC,224129.70,A,3724.967,N,12204.806,W,13.2,6.0,290520,,,A*59
$GPGGA,224129.80,3724.9675072,N,12204.8060397,W,1,00,0.0,7.03,M,-32.65,M,,*5F
$GPRMC,224129.80,A,3724.968,N,12204.806,W,13.3,6.0,290520,,,A*5A
$GPGGA,224129.90,3724.9678688,N,12204.8060202,W,1,00,0.0,7.02,M,-32.65,M,,*5C
$GPRMC,224129.90,A,3724.968,N,12204.806,W,13.3,5.9,290520,,,A*57
$GPGGA,224130.00,3724.9682312,N,12204.8060004,W,1,00,0.0,7.02,M,-32.65,M,,*5A
$GPRMC,224130.00,A,3724.968,N,12204.806,W,13.2,5.9,290520,,,A*53
$GPGGA,224130.10,3724.9685962,N,12204.8059804,W,1,02,1.0,7.02,M,-32.65,M,,*50
$GPRMC,224130.10,A,3724.969,N,12204.806,W,13.2,5.9,290520,,,A*28
