$GPGGA,185425.00,3720.0687096,N,12153.9757815,W,1,18,0.6,26.13,M,-32.64,M,,*62
$GPRMC,185425.00,A,3720.069,N,12153.976,W,0.0,59.9,290421,,,A*10
$GPGGA,185425.10,3720.0687096,N,12153.9757813,W,1,18,0.6,26.13,M,-32.64,M,,*65
$GPRMC,185425.10,A,3720.069,N,12153.976,W,0.0,59.9,290421,,,A*11
$GPGGA,185425.20,3720.0687095,N,12153.9757809,W,1,18,0.6,26.13,M,-32.64,M,,*6E
$GPRMC,185425.20,A,3720.069,N,12153.976,W,0.0,59.9,290421,,,A*69
$GPGGA,185425.30,3720.0687095,N,12153.9757805,W,1,18,0.6,26.13,M,-32.64,M,,*63
$GPRMC,185425.30,A,3720.069,N,12153.976,W,0.0,59.9,290421,,,A*13
$GPGGA,185425.40,3720.0687095,N,12153.9757804,W,1,18,0.6,26.13,M,-32.64,M,,*65
$GPRMC,185425.40,A,3720.069,N,12153.976,W,0.0,59.9,290421,,,A*14
$GPGGA,185425.50,3720.0687095,N,12153.9757804,W,1,18,0.6,26.13,M,-32.64,M,,*64
$GPRMC,185425.50,A,3720.069,N,12153.976,W,0.0,59.9,290421,,,A*15
$GPGGA,185425.60,3720.0687095,N,12153.9757807,W,1,18,0.6,26.13,M,-32.64,M,,*64
$GPRMC,185425.60,A,3720.069,N,12153.976,W,0.0,59.9,290421,,,A*16
$GPGGA,185425.70,3720.0687095,N,12153.9757809,W,1,18,0.6,26.13,M,-32.64,M,,*6B
$GPRMC,185425.70,A,3720.069,N,12153.976,W,0.0,59.9,290421,,,A*6E
$GPGGA,185425.80,3720.0687095,N,12153.9757811,W,1,18,0.6,26.13,M,-32.64,M,,*6D
$GPRMC,185425.80,A,3720.069,N,12153.976,W,0.0,59.9,290421,,,A*61
$GPGGA,185425.90,3720.0687096,N,12153.9757812,W,1,18,0.6,26.13,M,-32.64,M,,*6C
$GPRMC,185425.90,A,3720.069,N,12153.976,W,0.0,59.9,290421,,,A*66
$GPGGA,185426.00,3720.0687096,N,12153.9757812,W,1,18,0.6,26.13,M,-32.64,M,,*66
$GPRMC,185426.00,A,3720.069,N,12153.976,W,0.0,59.9,290421,,,A*13
$GPGGA,185426.10,3720.0687096,N,12153.9757813,W,1,18,0.6,26.13,M,-32.64,M,,*66
$GPRMC,185426.10,A,3720.069,N,12153.976,W,0.0,59.9,290421,,,A*12
$GPGGA,185426.20,3720.0687096,N,12153.9757813,W,1,18,0.6,26.13,M,-32.64,M,,*65
$GPRMC,185426.20,A,3720.069,N,12153.976,W,0.0,59.9,290421,,,A*11
$GPGGA,185426.30,3720.0687096,N,12153.9757813,W,1,18,0.6,26.13,M,-32.64,M,,*64
$GPRMC,185426.30,A,3720.069,N,12153.976,W,0.0,59.9,290421,,,A*10
$GPGGA,185426.40,3720.0687096,N,12153.9757813,W,1,18,0.6,26.13,M,-32.64,M,,*63
$GPRMC,185426.40,A,3720.069,N,12153.976,W,0.0,59.9,290421,,,A*17
$GPGGA,185426.50,3720.0687096,N,12153.9757813,W,1,18,0.6,26.13,M,-32.64,M,,*62
$GPRMC,185426.50,A,3720.069,N,12153.976,W,0.0,59.9,290421,,,A*16
$GPGGA,185426.60,3720.0687096,N,12153.9757812,W,1,18,0.6,26.13,M,-32.64,M,,*60
$GPRMC,185426.60,A,3720.069,N,12153.976,W,0.0,59.9,290421,,,A*15
$GPGGA,185426.70,3720.0687096,N,12153.9757811,W,1,18,0.6,26.13,M,-32.64,M,,*62
$GPRMC,185426.70,A,3720.069,N,12153.976,W,0.0,59.9,290421,,,A*14
$GPGGA,185426.80,3720.0687095,N,12153.9757810,W,1,18,0.6,26.13,M,-32.64,M,,*6F
$GPRMC,185426.80,A,3720.069,N,12153.976,W,0.0,59.9,290421,,,A*62
$GPGGA,185426.90,3720.0687095,N,12153.9757808,W,1,18,0.6,26.13,M,-32.64,M,,*67
$GPRMC,185426.90,A,3720.069,N,12153.976,W,0.0,59.9,290421,,,A*1A
$GPGGA,185427.00,3720.0687095,N,12153.9757807,W,1,18,0.6,26.13,M,-32.64,M,,*60
$GPRMC,185427.00,A,3720.069,N,12153.976,W,0.0,59.9,290421,,,A*12
$GPGGA,185427.10,3720.0687095,N,12153.9757805,W,1,18,0.6,26.13,M,-32.64,M,,*63
$GPRMC,185427.10,A,3720.069,N,12153.976,W,0.0,59.9,290421,,,A*13
$GPGGA,185427.20,3720.0687095,N,12153.9757803,W,1,18,0.6,26.13,M,-32.64,M,,*66
$GPRMC,185427.20,A,3720.069,N,12153.976,W,0.0,59.9,290421,,,A*10
$GPGGA,185427.30,3720.0687094,N,12153.9757801,W,1,18,0.6,26.13,M,-32.64,M,,*64
$GPRMC,185427.30,A,3720.069,N,12153.976,W,0.0,59.9,290421,,,A*11
$GPGGA,185427.40,3720.0687094,N,12153.9757800,W,1,18,0.6,26.13,M,-32.64,M,,*62
$GPRMC,185427.40,A,3720.069,N,12153.976,W,0.0,59.9,290421,,,A*16
$GPGGA,185427.50,3720.0687094,N,12153.9757798,W,1,18,0.6,26.13,M,-32.64,M,,*6D
$GPRMC,185427.50,A,3720.069,N,12153.976,W,0.0,59.9,290421,,,A*6E
$GPGGA,185427.60,3720.0687094,N,12153.9757797,W,1,18,0.6,26.13,M,-32.64,M,,*61
$GPRMC,185427.60,A,3720.069,N,12153.976,W,0.0,59.9,290421,,,A*14
$GPGGA,185427.70,3720.0687094,N,12153.9757796,W,1,18,0.6,26.13,M,-32.64,M,,*61
$GPRMC,185427.70,A,3720.069,N,12153.976,W,0.0,59.9,290421,,,A*15
$GPGGA,185427.80,3720.0687094,N,12153.9757796,W,1,18,0.6,26.13,M,-32.64,M,,*6E
$GPRMC,185427.80,A,3720.069,N,12153.976,W,0.0,59.9,290421,,,A*61
$GPGGA,185427.90,3720.0687094,N,12153.9757795,W,1,18,0.6,26.13,M,-32.64,M,,*6C
$GPRMC,185427.90,A,3720.069,N,12153.976,W,0.0,59.9,290421,,,A*64
$GPGGA,185428.00,3720.0687094,N,12153.9757795,W,1,18,0.6,26.13,M,-32.64,M,,*6A
$GPRMC,185428.00,A,3720.069,N,12153.976,W,0.0,59.9,290421,,,A*66
$GPGGA,185428.10,3720.0687094,N,12153.9757795,W,1,18,0.6,26.13,M,-32.64,M,,*6B
$GPRMC,185428.10,A,3720.069,N,12153.976,W,0.0,59.9,290421,,,A*65
$GPGGA,185428.20,3720.0687094,N,12153.9757795,W,1,18,0.6,26.13,M,-32.64,M,,*68
$GPRMC,185428.20,A,3720.069,N,12153.976,W,0.0,59.9,290421,,,A*1F
$GPGGA,185428.30,3720.0687094,N,12153.9757796,W,1,18,0.6,26.13,M,-32.64,M,,*6A
$GPRMC,185428.30,A,3720.069,N,12153.976,W,0.0,59.9,290421,,,A*65
$GPGGA,185428.40,3720.0687094,N,12153.9757795,W,1,18,0.6,26.13,M,-32.64,M,,*6E
$GPRMC,185428.40,A,3720.069,N,12153.976,W,0.0,59.9,290421,,,A*62
$GPGGA,185428.50,3720.0687095,N,12153.9757795,W,1,18,0.6,26.13,M,-32.64,M,,*6E
$GPRMC,185428.50,A,3720.069,N,12153.976,W,0.0,59.9,290421,,,A*63
$GPGGA,185428.60,3720.0687094,N,12153.9757795,W,1,18,0.6,26.13,M,-32.64,M,,*6C
$GPRMC,185428.60,A,3720.069,N,12153.976,W,0.0,59.9,290421,,,A*64
$GPGGA,185428.70,3720.0687094,N,12153.9757795,W,1,18,0.6,26.13,M,-32.64,M,,*6D
$GPRMC,185428.70,A,3720.069,N,12153.976,W,0.0,59.9,290421,,,A*63
$GPGGA,185428.80,3720.0687094,N,12153.9757795,W,1,18,0.6,26.13,M,-32.64,M,,*62
$GPRMC,185428.80,A,3720.069,N,12153.976,W,0.0,59.9,290421,,,A*15
$GPGGA,185428.90,3720.0687094,N,12153.9757795,W,1,18,0.6,26.13,M,-32.64,M,,*63
$GPRMC,185428.90,A,3720.069,N,12153.976,W,0.0,59.9,290421,,,A*14
$GPGGA,185429.00,3720.0687094,N,12153.9757795,W,1,18,0.6,26.13,M,-32.64,M,,*6B
$GPRMC,185429.00,A,3720.069,N,12153.976,W,0.0,59.9,290421,,,A*65
$GPGGA,185429.10,3720.0687094,N,12153.9757795,W,1,18,0.6,26.13,M,-32.64,M,,*6A
$GPRMC,185429.10,A,3720.069,N,12153.976,W,0.0,59.9,290421,,,A*66
$GPGGA,185429.20,3720.0687094,N,12153.9757795,W,1,18,0.6,26.13,M,-32.64,M,,*69
$GPRMC,185429.20,A,3720.069,N,12153.976,W,0.0,59.9,290421,,,A*1E
$GPGGA,185429.30,3720.0687094,N,12153.9757795,W,1,18,0.6,26.13,M,-32.64,M,,*68
$GPRMC,185429.30,A,3720.069,N,12153.976,W,0.0,59.9,290421,,,A*1F
$GPGGA,185429.40,3720.0687094,N,12153.9757795,W,1,18,0.6,26.13,M,-32.64,M,,*6F
$GPRMC,185429.40,A,3720.069,N,12153.976,W,0.0,59.9,290421,,,A*61
$GPGGA,185429.50,3720.0687094,N,12153.9757795,W,1,18,0.6,26.13,M,-32.64,M,,*6E
$GPRMC,185429.50,A,3720.069,N,12153.976,W,0.0,59.9,290421,,,A*62
$GPGGA,185429.60,3720.0687094,N,12153.9757795,W,1,18,0.6,26.13,M,-32.64,M,,*6D
$GPRMC,185429.60,A,3720.069,N,12153.976,W,0.0,59.9,290421,,,A*63
$GPGGA,185429.70,3720.0687094,N,12153.9757795,W,1,18,0.6,26.13,M,-32.64,M,,*6C
$GPRMC,185429.70,A,3720.069,N,12153.976,W,0.0,59.9,290421,,,A*64
$GPGGA,185429.80,3720.0687094,N,12153.9757795,W,1,18,0.6,26.13,M,-32.64,M,,*63
$GPRMC,185429.80,A,3720.069,N,12153.976,W,0.0,59.9,290421,,,A*14
$GPGGA,185429.90,3720.0687094,N,12153.9757795,W,1,18,0.6,26.13,M,-32.64,M,,*62
$GPRMC,185429.90,A,3720.069,N,12153.976,W,0.0,59.9,290421,,,A*15
$GPGGA,185430.00,3720.0687094,N,12153.9757795,W,1,18,0.6,26.13,M,-32.64,M,,*63
$GPRMC,185430.00,A,3720.069,N,12153.976,W,0.0,59.9,290421,,,A*14
$GPGGA,185430.10,3720.0687094,N,12153.9757795,W,1,18,0.6,26.13,M,-32.64,M,,*62
$GPRMC,185430.10,A,3720.069,N,12153.976,W,0.0,59.9,290421,,,A*15
$GPGGA,185430.20,3720.0687094,N,12153.9757795,W,1,18,0.6,26.13,M,-32.64,M,,*61
$GPRMC,185430.20,A,3720.069,N,12153.976,W,0.0,59.9,290421,,,A*16
$GPGGA,185430.30,3720.0687094,N,12153.9757796,W,1,18,0.6,26.13,M,-32.64,M,,*63
$GPRMC,185430.30,A,3720.069,N,12153.976,W,0.0,59.9,290421,,,A*17
$GPGGA,185430.40,3720.0687094,N,12153.9757796,W,1,18,0.6,26.13,M,-32.64,M,,*64
$GPRMC,185430.40,A,3720.069,N,12153.976,W,0.0,59.9,290421,,,A*10
$GPGGA,185430.50,3720.0687094,N,12153.9757796,W,1,18,0.6,26.13,M,-32.64,M,,*65
$GPRMC,185430.50,A,3720.069,N,12153.976,W,0.0,59.9,290421,,,A*11
$GPGGA,185430.60,3720.0687094,N,12153.9757796,W,1,18,0.6,26.13,M,-32.64,M,,*66
$GPRMC,185430.60,A,3720.069,N,12153.976,W,0.0,59.9,290421,,,A*12
$GPGGA,185430.70,3720.0687094,N,12153.9757796,W,1,18,0.6,26.13,M,-32.64,M,,*67
$GPRMC,185430.70,A,3720.069,N,12153.976,W,0.0,59.9,290421,,,A*13
$GPGGA,185430.80,3720.0687094,N,12153.9757796,W,1,18,0.6,26.13,M,-32.64,M,,*68
$GPRMC,185430.80,A,3720.069,N,12153.976,W,0.0,59.9,290421,,,A*1C
$GPGGA,185430.90,3720.0687094,N,12153.9757795,W,1,18,0.6,26.13,M,-32.64,M,,*6A
$GPRMC,185430.90,A,3720.069,N,12153.976,W,0.0,59.9,290421,,,A*66
$GPGGA,185431.00,3720.0687094,N,12153.9757796,W,1,18,0.6,26.13,M,-32.64,M,,*61
$GPRMC,185431.00,A,3720.069,N,12153.976,W,0.0,59.9,290421,,,A*15
$GPGGA,185431.10,3720.0687094,N,12153.9757796,W,1,18,0.6,26.13,M,-32.64,M,,*60
$GPRMC,185431.10,A,3720.069,N,12153.976,W,0.0,59.9,290421,,,A*14
$GPGGA,185431.20,3720.0687094,N,12153.9757796,W,1,18,0.6,26.13,M,-32.64,M,,*63
$GPRMC,185431.20,A,3720.069,N,12153.976,W,0.0,59.9,290421,,,A*17
$GPGGA,185431.30,3720.0687094,N,12153.9757796,W,1,18,0.6,26.13,M,-32.64,M,,*62
$GPRMC,185431.30,A,3720.069,N,12153.976,W,0.0,59.9,290421,,,A*16
$GPGGA,185431.40,3720.0687094,N,12153.9757796,W,1,18,0.6,26.13,M,-32.64,M,,*65
$GPRMC,185431.40,A,3720.069,N,12153.976,W,0.0,59.9,290421,,,A*11
$GPGGA,185431.50,3720.0687094,N,12153.9757796,W,1,18,0.6,26.13,M,-32.64,M,,*64
$GPRMC,185431.50,A,3720.069,N,12153.976,W,0.0,59.9,290421,,,A*10
$GPGGA,185431.60,3720.0687094,N,12153.9757796,W,1,18,0.6,26.13,M,-32.64,M,,*67
$GPRMC,185431.60,A,3720.069,N,12153.976,W,0.0,59.9,290421,,,A*13
$GPGGA,185431.70,3720.0687094,N,12153.9757796,W,1,18,0.6,26.13,M,-32.64,M,,*66
$GPRMC,185431.70,A,3720.069,N,12153.976,W,0.0,59.9,290421,,,A*12
$GPGGA,185431.80,3720.0687094,N,12153.9757796,W,1,18,0.6,26.13,M,-32.64,M,,*69
$GPRMC,185431.80,A,3720.069,N,12153.976,W,0.0,59.9,290421,,,A*1D
$GPGGA,185431.90,3720.0687094,N,12153.9757796,W,1,18,0.6,26.13,M,-32.64,M,,*68
$GPRMC,185431.90,A,3720.069,N,12153.976,W,0.0,59.9,290421,,,A*1C
$GPGGA,185432.00,3720.0687094,N,12153.9757796,W,1,18,0.6,26.13,M,-32.64,M,,*62
$GPRMC,185432.00,A,3720.069,N,12153.976,W,0.0,59.9,290421,,,A*16
$GPGGA,185432.10,3720.0687094,N,12153.9757796,W,1,18,0.6,26.13,M,-32.64,M,,*63
$GPRMC,185432.10,A,3720.069,N,12153.976,W,0.0,59.9,290421,,,A*17
$GPGGA,185432.20,3720.0687094,N,12153.9757796,W,1,18,0.6,26.13,M,-32.64,M,,*60
$GPRMC,185432.20,A,3720.069,N,12153.976,W,0.0,59.9,290421,,,A*14
$GPGGA,185432.30,3720.0687094,N,12153.9757796,W,1,18,0.6,26.13,M,-32.64,M,,*61
$GPRMC,185432.30,A,3720.069,N,12153.976,W,0.0,59.9,290421,,,A*15
$GPGGA,185432.40,3720.0687094,N,12153.9757796,W,1,18,0.6,26.13,M,-32.64,M,,*66
$GPRMC,185432.40,A,3720.069,N,12153.976,W,0.0,59.9,290421,,,A*12
$GPGGA,185432.50,3720.0687094,N,12153.9757796,W,1,18,0.6,26.13,M,-32.64,M,,*67
$GPRMC,185432.50,A,3720.069,N,12153.976,W,0.0,59.9,290421,,,A*13
$GPGGA,185432.60,3720.0687094,N,12153.9757796,W,1,18,0.6,26.13,M,-32.64,M,,*64
$GPRMC,185432.60,A,3720.069,N,12153.976,W,0.0,59.9,290421,,,A*10
$GPGGA,185432.70,3720.0687094,N,12153.9757796,W,1,18,0.6,26.13,M,-32.64,M,,*65
$GPRMC,185432.70,A,3720.069,N,12153.976,W,0.0,59.9,290421,,,A*11
$GPGGA,185432.80,3720.0687094,N,12153.9757796,W,1,18,0.6,26.13,M,-32.64,M,,*6A
$GPRMC,185432.80,A,3720.069,N,12153.976,W,0.0,59.9,290421,,,A*65
$GPGGA,185432.90,3720.0687094,N,12153.9757796,W,1,18,0.6,26.13,M,-32.64,M,,*6B
$GPRMC,185432.90,A,3720.069,N,12153.976,W,0.0,59.9,290421,,,A*66
$GPGGA,185433.00,3720.0687094,N,12153.9757795,W,1,18,0.6,26.13,M,-32.64,M,,*60
$GPRMC,185433.00,A,3720.069,N,12153.976,W,0.0,59.9,290421,,,A*17
$GPGGA,185433.10,3720.0687094,N,12153.9757795,W,1,18,0.6,26.13,M,-32.64,M,,*61
$GPRMC,185433.10,A,3720.069,N,12153.976,W,0.0,59.9,290421,,,A*16
$GPGGA,185433.20,3720.0687094,N,12153.9757796,W,1,18,0.6,26.13,M,-32.64,M,,*61
$GPRMC,185433.20,A,3720.069,N,12153.976,W,0.0,59.9,290421,,,A*15
$GPGGA,185433.30,3720.0687094,N,12153.9757796,W,1,18,0.6,26.13,M,-32.64,M,,*60
$GPRMC,185433.30,A,3720.069,N,12153.976,W,0.0,59.9,290421,,,A*14
$GPGGA,185433.40,3720.0687094,N,12153.9757796,W,1,18,0.6,26.13,M,-32.64,M,,*67
$GPRMC,185433.40,A,3720.069,N,12153.976,W,0.0,59.9,290421,,,A*13
$GPGGA,185433.50,3720.0687094,N,12153.9757796,W,1,18,0.6,26.13,M,-32.64,M,,*66
$GPRMC,185433.50,A,3720.069,N,12153.976,W,0.0,59.9,290421,,,A*12
$GPGGA,185433.60,3720.0687094,N,12153.9757796,W,1,18,0.6,26.13,M,-32.64,M,,*65
$GPRMC,185433.60,A,3720.069,N,12153.976,W,0.0,59.9,290421,,,A*11
$GPGGA,185433.70,3720.0687094,N,12153.9757796,W,1,18,0.6,26.13,M,-32.64,M,,*64
$GPRMC,185433.70,A,3720.069,N,12153.976,W,0.0,59.9,290421,,,A*10
$GPGGA,185433.80,3720.0687094,N,12153.9757796,W,1,18,0.6,26.13,M,-32.64,M,,*6B
$GPRMC,185433.80,A,3720.069,N,12153.976,W,0.0,59.9,290421,,,A*66
$GPGGA,185433.90,3720.0687094,N,12153.9757795,W,1,18,0.6,26.13,M,-32.64,M,,*69
$GPRMC,185433.90,A,3720.069,N,12153.976,W,0.0,59.9,290421,,,A*1E
$GPGGA,185434.00,3720.0687094,N,12153.9757796,W,1,18,0.6,26.13,M,-32.64,M,,*64
$GPRMC,185434.00,A,3720.069,N,12153.976,W,0.0,59.9,290421,,,A*10
$GPGGA,185434.10,3720.0687094,N,12153.9757796,W,1,18,0.6,26.13,M,-32.64,M,,*65
$GPRMC,185434.10,A,3720.069,N,12153.976,W,0.0,59.9,290421,,,A*11
$GPGGA,185434.20,3720.0687094,N,12153.9757796,W,1,18,0.6,26.13,M,-32.64,M,,*66
$GPRMC,185434.20,A,3720.069,N,12153.976,W,0.0,59.9,290421,,,A*12
$GPGGA,185434.30,3720.0687094,N,12153.9757796,W,1,18,0.6,26.13,M,-32.64,M,,*67
$GPRMC,185434.30,A,3720.069,N,12153.976,W,0.0,59.9,290421,,,A*13
$GPGGA,185434.40,3720.0687094,N,12153.9757796,W,1,18,0.6,26.13,M,-32.64,M,,*60
$GPRMC,185434.40,A,3720.069,N,12153.976,W,0.0,59.9,290421,,,A*14
$GPGGA,185434.50,3720.0687094,N,12153.9757796,W,1,18,0.6,26.13,M,-32.64,M,,*61
$GPRMC,185434.50,A,3720.069,N,12153.976,W,0.0,59.9,290421,,,A*15
$GPGGA,185434.60,3720.0687094,N,12153.9757796,W,1,18,0.6,26.13,M,-32.64,M,,*62
$GPRMC,185434.60,A,3720.069,N,12153.976,W,0.0,59.9,290421,,,A*16
$GPGGA,185434.70,3720.0687094,N,12153.9757796,W,1,18,0.6,26.13,M,-32.64,M,,*63
$GPRMC,185434.70,A,3720.069,N,12153.976,W,0.0,59.9,290421,,,A*17
$GPGGA,185434.80,3720.0687094,N,12153.9757796,W,1,18,0.6,26.13,M,-32.64,M,,*6C
$GPRMC,185434.80,A,3720.069,N,12153.976,W,0.0,59.9,290421,,,A*67
$GPGGA,185434.90,3720.0687094,N,12153.9757795,W,1,18,0.6,26.13,M,-32.64,M,,*6E
$GPRMC,185434.90,A,3720.069,N,12153.976,W,0.0,59.9,290421,,,A*62
$GPGGA,185435.00,3720.0687094,N,12153.9757795,W,1,18,0.6,26.13,M,-32.64,M,,*66
$GPRMC,185435.00,A,3720.069,N,12153.976,W,0.0,59.9,290421,,,A*11
$GPGGA,185435.10,3720.0687094,N,12153.9757795,W,1,18,0.6,26.13,M,-32.64,M,,*67
$GPRMC,185435.10,A,3720.069,N,12153.976,W,0.0,59.9,290421,,,A*10
$GPGGA,185435.20,3720.0687094,N,12153.9757796,W,1,18,0.6,26.13,M,-32.64,M,,*67
$GPRMC,185435.20,A,3720.069,N,12153.976,W,0.0,59.9,290421,,,A*13
$GPGGA,185435.30,3720.0687094,N,12153.9757796,W,1,18,0.6,26.13,M,-32.64,M,,*66
$GPRMC,185435.30,A,3720.069,N,12153.976,W,0.0,59.9,290421,,,A*12
$GPGGA,185435.40,3720.0687094,N,12153.9757795,W,1,18,0.6,26.13,M,-32.64,M,,*62
$GPRMC,185435.40,A,3720.069,N,12153.976,W,0.0,59.9,290421,,,A*15
$GPGGA,185435.50,3720.0687094,N,12153.9757795,W,1,18,0.6,26.13,M,-32.64,M,,*63
$GPRMC,185435.50,A,3720.069,N,12153.976,W,0.0,59.9,290421,,,A*14
$GPGGA,185435.60,3720.0687094,N,12153.9757795,W,1,18,0.6,26.13,M,-32.64,M,,*60
$GPRMC,185435.60,A,3720.069,N,12153.976,W,0.0,59.9,290421,,,A*17
$GPGGA,185435.70,3720.0687094,N,12153.9757796,W,1,18,0.6,26.13,M,-32.64,M,,*62
$GPRMC,185435.70,A,3720.069,N,12153.976,W,0.0,59.9,290421,,,A*16
$GPGGA,185435.80,3720.0687094,N,12153.9757795,W,1,18,0.6,26.13,M,-32.64,M,,*6E
$GPRMC,185435.80,A,3720.069,N,12153.976,W,0.0,59.9,290421,,,A*62
$GPGGA,185435.90,3720.0687094,N,12153.9757795,W,1,18,0.6,26.13,M,-32.64,M,,*6F
$GPRMC,185435.90,A,3720.069,N,12153.976,W,0.0,59.9,290421,,,A*61
$GPGGA,185436.00,3720.0687094,N,12153.9757795,W,1,18,0.6,26.13,M,-32.64,M,,*65
$GPRMC,185436.00,A,3720.069,N,12153.976,W,0.0,59.9,290421,,,A*12
$GPGGA,185436.10,3720.0687094,N,12153.9757796,W,1,18,0.6,26.13,M,-32.64,M,,*67
$GPRMC,185436.10,A,3720.069,N,12153.976,W,0.0,59.9,290421,,,A*13
$GPGGA,185436.20,3720.0687094,N,12153.9757796,W,1,18,0.6,26.13,M,-32.64,M,,*64
$GPRMC,185436.20,A,3720.069,N,12153.976,W,0.0,59.9,290421,,,A*10
$GPGGA,185436.30,3720.0687094,N,12153.9757795,W,1,18,0.6,26.13,M,-32.64,M,,*66
$GPRMC,185436.30,A,3720.069,N,12153.976,W,0.0,59.9,290421,,,A*11
$GPGGA,185436.40,3720.0687094,N,12153.9757796,W,1,18,0.6,26.13,M,-32.64,M,,*62
$GPRMC,185436.40,A,3720.069,N,12153.976,W,0.0,59.9,290421,,,A*16
$GPGGA,185436.50,3720.0687094,N,12153.9757796,W,1,18,0.6,26.13,M,-32.64,M,,*63
$GPRMC,185436.50,A,3720.069,N,12153.976,W,0.0,59.9,290421,,,A*17
$GPGGA,185436.60,3720.0687094,N,12153.9757795,W,1,18,0.6,26.13,M,-32.64,M,,*63
$GPRMC,185436.60,A,3720.069,N,12153.976,W,0.0,59.9,290421,,,A*14
$GPGGA,185436.70,3720.0687094,N,12153.9757795,W,1,18,0.6,26.13,M,-32.64,M,,*62
$GPRMC,185436.70,A,3720.069,N,12153.976,W,0.0,59.9,290421,,,A*15
$GPGGA,185436.80,3720.0687094,N,12153.9757795,W,1,18,0.6,26.13,M,-32.64,M,,*6D
$GPRMC,185436.80,A,3720.069,N,12153.976,W,0.0,59.9,290421,,,A*63
$GPGGA,185436.90,3720.0687094,N,12153.9757795,W,1,18,0.6,26.13,M,-32.64,M,,*6C
$GPRMC,185436.90,A,3720.069,N,12153.976,W,0.0,59.9,290421,,,A*64
$GPGGA,185437.00,3720.0687094,N,12153.9757795,W,1,18,0.6,26.13,M,-32.64,M,,*64
$GPRMC,185437.00,A,3720.069,N,12153.976,W,0.0,59.9,290421,,,A*13
$GPGGA,185437.10,3720.0687094,N,12153.9757795,W,1,18,0.6,26.13,M,-32.64,M,,*65
$GPRMC,185437.10,A,3720.069,N,12153.976,W,0.0,59.9,290421,,,A*12
$GPGGA,185437.20,3720.0687094,N,12153.9757796,W,1,18,0.6,26.13,M,-32.64,M,,*65
$GPRMC,185437.20,A,3720.069,N,12153.976,W,0.0,59.9,290421,,,A*11
$GPGGA,185437.30,3720.0687094,N,12153.9757795,W,1,18,0.6,26.13,M,-32.64,M,,*67
$GPRMC,185437.30,A,3720.069,N,12153.976,W,0.0,59.9,290421,,,A*10
$GPGGA,185437.40,3720.0687094,N,12153.9757796,W,1,18,0.6,26.13,M,-32.64,M,,*63
$GPRMC,185437.40,A,3720.069,N,12153.976,W,0.0,59.9,290421,,,A*17
$GPGGA,185437.50,3720.0687094,N,12153.9757796,W,1,18,0.6,26.13,M,-32.64,M,,*62
$GPRMC,185437.50,A,3720.069,N,12153.976,W,0.0,59.9,290421,,,A*16
$GPGGA,185437.60,3720.0687094,N,12153.9757796,W,1,18,0.6,26.13,M,-32.64,M,,*61
$GPRMC,185437.60,A,3720.069,N,12153.976,W,0.0,59.9,290421,,,A*15
$GPGGA,185437.70,3720.0687094,N,12153.9757795,W,1,18,0.6,26.13,M,-32.64,M,,*63
$GPRMC,185437.70,A,3720.069,N,12153.976,W,0.0,59.9,290421,,,A*14
$GPGGA,185437.80,3720.0687094,N,12153.9757795,W,1,18,0.6,26.13,M,-32.64,M,,*6C
$GPRMC,185437.80,A,3720.069,N,12153.976,W,0.0,59.9,290421,,,A*64
$GPGGA,185437.90,3720.0687094,N,12153.9757795,W,1,18,0.6,26.13,M,-32.64,M,,*6D
$GPRMC,185437.90,A,3720.069,N,12153.976,W,0.0,59.9,290421,,,A*63
$GPGGA,185438.00,3720.0687094,N,12153.9757795,W,1,18,0.6,26.13,M,-32.64,M,,*6B
$GPRMC,185438.00,A,3720.069,N,12153.976,W,0.0,59.9,290421,,,A*65
$GPGGA,185438.10,3720.0687094,N,12153.9757795,W,1,18,0.6,26.13,M,-32.64,M,,*6A
$GPRMC,185438.10,A,3720.069,N,12153.976,W,0.0,59.9,290421,,,A*66
$GPGGA,185438.20,3720.0687094,N,12153.9757795,W,1,18,0.6,26.13,M,-32.64,M,,*69
$GPRMC,185438.20,A,3720.069,N,12153.976,W,0.0,59.9,290421,,,A*1E
$GPGGA,185438.30,3720.0687094,N,12153.9757795,W,1,18,0.6,26.13,M,-32.64,M,,*68
$GPRMC,185438.30,A,3720.069,N,12153.976,W,0.0,59.9,290421,,,A*1F
$GPGGA,185438.40,3720.0687094,N,12153.9757796,W,1,18,0.6,26.13,M,-32.64,M,,*6C
$GPRMC,185438.40,A,3720.069,N,12153.976,W,0.0,59.9,290421,,,A*67
$GPGGA,185438.50,3720.0687094,N,12153.9757796,W,1,18,0.6,26.13,M,-32.64,M,,*6D
$GPRMC,185438.50,A,3720.069,N,12153.976,W,0.0,59.9,290421,,,A*60
$GPGGA,185438.60,3720.0687094,N,12153.9757795,W,1,18,0.6,26.13,M,-32.64,M,,*6D
$GPRMC,185438.60,A,3720.069,N,12153.976,W,0.0,59.9,290421,,,A*63
$GPGGA,185438.70,3720.0687094,N,12153.9757796,W,1,18,0.6,26.13,M,-32.64,M,,*6F
$GPRMC,185438.70,A,3720.069,N,12153.976,W,0.0,59.9,290421,,,A*62
$GPGGA,185438.80,3720.0687094,N,12153.9757795,W,1,18,0.6,26.13,M,-32.64,M,,*63
$GPRMC,185438.80,A,3720.069,N,12153.976,W,0.0,59.9,290421,,,A*14
$GPGGA,185438.90,3720.0687094,N,12153.9757795,W,1,18,0.6,26.13,M,-32.64,M,,*62
$GPRMC,185438.90,A,3720.069,N,12153.976,W,0.0,59.9,290421,,,A*15
$GPGGA,185439.00,3720.0687094,N,12153.9757795,W,1,18,0.6,26.13,M,-32.64,M,,*6A
$GPRMC,185439.00,A,3720.069,N,12153.976,W,0.0,59.9,290421,,,A*66
$GPGGA,185439.10,3720.0687094,N,12153.9757795,W,1,18,0.6,26.13,M,-32.64,M,,*6B
$GPRMC,185439.10,A,3720.069,N,12153.976,W,0.0,59.9,290421,,,A*65
$GPGGA,185439.20,3720.0687094,N,12153.9757796,W,1,18,0.6,26.13,M,-32.64,M,,*6B
$GPRMC,185439.20,A,3720.069,N,12153.976,W,0.0,59.9,290421,,,A*66
$GPGGA,185439.30,3720.0687094,N,12153.9757795,W,1,18,0.6,26.13,M,-32.64,M,,*69
$GPRMC,185439.30,A,3720.069,N,12153.976,W,0.0,59.9,290421,,,A*1E
$GPGGA,185439.40,3720.0687094,N,12153.9757796,W,1,18,0.6,26.13,M,-32.64,M,,*6D
$GPRMC,185439.40,A,3720.069,N,12153.976,W,0.0,59.9,290421,,,A*60
$GPGGA,185439.50,3720.0687094,N,12153.9757796,W,1,18,0.6,26.13,M,-32.64,M,,*6C
$GPRMC,185439.50,A,3720.069,N,12153.976,W,0.0,59.9,290421,,,A*67
$GPGGA,185439.60,3720.0687094,N,12153.9757796,W,1,18,0.6,26.13,M,-32.64,M,,*6F
$GPRMC,185439.60,A,3720.069,N,12153.976,W,0.0,59.9,290421,,,A*62
$GPGGA,185439.70,3720.0687094,N,12153.9757796,W,1,18,0.6,26.13,M,-32.64,M,,*6E
$GPRMC,185439.70,A,3720.069,N,12153.976,W,0.0,59.9,290421,,,A*61
$GPGGA,185439.80,3720.0687094,N,12153.9757796,W,1,18,0.6,26.13,M,-32.64,M,,*61
$GPRMC,185439.80,A,3720.069,N,12153.976,W,0.0,59.9,290421,,,A*15
$GPGGA,185439.90,3720.0687094,N,12153.9757796,W,1,18,0.6,26.13,M,-32.64,M,,*60
$GPRMC,185439.90,A,3720.069,N,12153.976,W,0.0,59.9,290421,,,A*14
$GPGGA,185440.00,3720.0687094,N,12153.9757795,W,1,18,0.6,26.13,M,-32.64,M,,*64
$GPRMC,185440.00,A,3720.069,N,12153.976,W,0.0,59.9,290421,,,A*13
$GPGGA,185440.10,3720.0687094,N,12153.9757795,W,1,18,0.6,26.13,M,-32.64,M,,*65
$GPRMC,185440.10,A,3720.069,N,12153.976,W,0.0,59.9,290421,,,A*12
$GPGGA,185440.20,3720.0687094,N,12153.9757796,W,1,18,0.6,26.13,M,-32.64,M,,*65
$GPRMC,185440.20,A,3720.069,N,12153.976,W,0.0,59.9,290421,,,A*11
$GPGGA,185440.30,3720.0687094,N,12153.9757796,W,1,18,0.6,26.13,M,-32.64,M,,*64
$GPRMC,185440.30,A,3720.069,N,12153.976,W,0.0,59.9,290421,,,A*10
$GPGGA,185440.40,3720.0687094,N,12153.9757796,W,1,18,0.6,26.13,M,-32.64,M,,*63
$GPRMC,185440.40,A,3720.069,N,12153.976,W,0.0,59.9,290421,,,A*17
$GPGGA,185440.50,3720.0687093,N,12153.9757795,W,1,18,0.6,26.13,M,-32.64,M,,*66
$GPRMC,185440.50,A,3720.069,N,12153.976,W,0.0,59.9,290421,,,A*16
$GPGGA,185440.60,3720.0687093,N,12153.9757795,W,1,18,0.6,26.13,M,-32.64,M,,*65
$GPRMC,185440.60,A,3720.069,N,12153.976,W,0.0,59.9,290421,,,A*15
$GPGGA,185440.70,3720.0687094,N,12153.9757796,W,1,18,0.6,26.13,M,-32.64,M,,*60
$GPRMC,185440.70,A,3720.069,N,12153.976,W,0.0,59.9,290421,,,A*14
$GPGGA,185440.80,3720.0687094,N,12153.9757795,W,1,18,0.6,26.13,M,-32.64,M,,*6C
$GPRMC,185440.80,A,3720.069,N,12153.976,W,0.0,59.9,290421,,,A*64
$GPGGA,185440.90,3720.0687093,N,12153.9757795,W,1,18,0.6,26.13,M,-32.64,M,,*6A
$GPRMC,185440.90,A,3720.069,N,12153.976,W,0.0,59.9,290421,,,A*61
$GPGGA,185441.00,3720.0687093,N,12153.9757795,W,1,18,0.6,26.13,M,-32.64,M,,*62
$GPRMC,185441.00,A,3720.069,N,12153.976,W,0.0,59.9,290421,,,A*12
$GPGGA,185441.10,3720.0687093,N,12153.9757795,W,1,18,0.6,26.13,M,-32.64,M,,*63
$GPRMC,185441.10,A,3720.069,N,12153.976,W,0.0,59.9,290421,,,A*13
$GPGGA,185441.20,3720.0687093,N,12153.9757795,W,1,18,0.6,26.13,M,-32.64,M,,*60
$GPRMC,185441.20,A,3720.069,N,12153.976,W,0.0,59.9,290421,,,A*10
$GPGGA,185441.30,3720.0687093,N,12153.9757795,W,1,18,0.6,26.13,M,-32.64,M,,*61
$GPRMC,185441.30,A,3720.069,N,12153.976,W,0.0,59.9,290421,,,A*11
$GPGGA,185441.40,3720.0687093,N,12153.9757795,W,1,18,0.6,26.13,M,-32.64,M,,*66
$GPRMC,185441.40,A,3720.069,N,12153.976,W,0.0,59.9,290421,,,A*16
$GPGGA,185441.50,3720.0687094,N,12153.9757795,W,1,18,0.6,26.13,M,-32.64,M,,*60
$GPRMC,185441.50,A,3720.069,N,12153.976,W,0.0,59.9,290421,,,A*17
$GPGGA,185441.60,3720.0687093,N,12153.9757795,W,1,18,0.6,26.13,M,-32.64,M,,*64
$GPRMC,185441.60,A,3720.069,N,12153.976,W,0.0,59.9,290421,,,A*14
$GPGGA,185441.70,3720.0687093,N,12153.9757794,W,1,18,0.6,26.13,M,-32.64,M,,*64
$GPRMC,185441.70,A,3720.069,N,12153.976,W,0.0,59.9,290421,,,A*15
$GPGGA,185441.80,3720.0687094,N,12153.9757795,W,1,18,0.6,26.13,M,-32.64,M,,*6D
$GPRMC,185441.80,A,3720.069,N,12153.976,W,0.0,59.9,290421,,,A*63
$GPGGA,185441.90,3720.0687094,N,12153.9757795,W,1,18,0.6,26.13,M,-32.64,M,,*6C
$GPRMC,185441.90,A,3720.069,N,12153.976,W,0.0,59.9,290421,,,A*64
$GPGGA,185442.00,3720.0687093,N,12153.9757794,W,1,18,0.6,26.13,M,-32.64,M,,*60
$GPRMC,185442.00,A,3720.069,N,12153.976,W,0.0,59.9,290421,,,A*11
$GPGGA,185442.10,3720.0687094,N,12153.9757795,W,1,18,0.6,26.13,M,-32.64,M,,*67
$GPRMC,185442.10,A,3720.069,N,12153.976,W,0.0,59.9,290421,,,A*10
$GPGGA,185442.20,3720.0687093,N,12153.9757795,W,1,18,0.6,26.13,M,-32.64,M,,*63
$GPRMC,185442.20,A,3720.069,N,12153.976,W,0.0,59.9,290421,,,A*13
$GPGGA,185442.30,3720.0687093,N,12153.9757795,W,1,18,0.6,26.13,M,-32.64,M,,*62
$GPRMC,185442.30,A,3720.069,N,12153.976,W,0.0,59.9,290421,,,A*12
$GPGGA,185442.40,3720.0687094,N,12153.9757796,W,1,18,0.6,26.13,M,-32.64,M,,*61
$GPRMC,185442.40,A,3720.069,N,12153.976,W,0.0,59.9,290421,,,A*15
$GPGGA,185442.50,3720.0687093,N,12153.9757795,W,1,18,0.6,26.13,M,-32.64,M,,*64
$GPRMC,185442.50,A,3720.069,N,12153.976,W,0.0,59.9,290421,,,A*14
$GPGGA,185442.60,3720.0687093,N,12153.9757795,W,1,18,0.6,26.13,M,-32.64,M,,*67
$GPRMC,185442.60,A,3720.069,N,12153.976,W,0.0,59.9,290421,,,A*17
$GPGGA,185442.70,3720.0687094,N,12153.9757796,W,1,18,0.6,26.13,M,-32.64,M,,*62
$GPRMC,185442.70,A,3720.069,N,12153.976,W,0.0,59.9,290421,,,A*16
$GPGGA,185442.80,3720.0687093,N,12153.9757795,W,1,18,0.6,26.13,M,-32.64,M,,*69
$GPRMC,185442.80,A,3720.069,N,12153.976,W,0.0,59.9,290421,,,A*19
$GPGGA,185442.90,3720.0687093,N,12153.9757795,W,1,18,0.6,26.13,M,-32.64,M,,*68
$GPRMC,185442.90,A,3720.069,N,12153.976,W,0.0,59.9,290421,,,A*18
$GPGGA,185443.00,3720.0687094,N,12153.9757795,W,1,18,0.6,26.13,M,-32.64,M,,*67
$GPRMC,185443.00,A,3720.069,N,12153.976,W,0.0,59.9,290421,,,A*10
$GPGGA,185443.10,3720.0687094,N,12153.9757795,W,1,18,0.6,26.13,M,-32.64,M,,*66
$GPRMC,185443.10,A,3720.069,N,12153.976,W,0.0,59.9,290421,,,A*11
$GPGGA,185443.20,3720.0687094,N,12153.9757795,W,1,18,0.6,26.13,M,-32.64,M,,*65
$GPRMC,185443.20,A,3720.069,N,12153.976,W,0.0,59.9,290421,,,A*12
$GPGGA,185443.30,3720.0687094,N,12153.9757795,W,1,18,0.6,26.13,M,-32.64,M,,*64
$GPRMC,185443.30,A,3720.069,N,12153.976,W,0.0,59.9,290421,,,A*13
$GPGGA,185443.40,3720.0687094,N,12153.9757795,W,1,18,0.6,26.13,M,-32.64,M,,*63
$GPRMC,185443.40,A,3720.069,N,12153.976,W,0.0,59.9,290421,,,A*14
$GPGGA,185443.50,3720.0687094,N,12153.9757796,W,1,18,0.6,26.13,M,-32.64,M,,*61
$GPRMC,185443.50,A,3720.069,N,12153.976,W,0.0,59.9,290421,,,A*15
$GPGGA,185443.60,3720.0687093,N,12153.9757795,W,1,18,0.6,26.13,M,-32.64,M,,*66
$GPRMC,185443.60,A,3720.069,N,12153.976,W,0.0,59.9,290421,,,A*16
$GPGGA,185443.70,3720.0687094,N,12153.9757796,W,1,18,0.6,26.13,M,-32.64,M,,*63
$GPRMC,185443.70,A,3720.069,N,12153.976,W,0.0,59.9,290421,,,A*17
$GPGGA,185443.80,3720.0687094,N,12153.9757796,W,1,18,0.6,26.13,M,-32.64,M,,*6C
$GPRMC,185443.80,A,3720.069,N,12153.976,W,0.0,59.9,290421,,,A*67
$GPGGA,185443.90,3720.0687094,N,12153.9757796,W,1,18,0.6,26.13,M,-32.64,M,,*6D
$GPRMC,185443.90,A,3720.069,N,12153.976,W,0.0,59.9,290421,,,A*60
$GPGGA,185444.00,3720.0687094,N,12153.9757796,W,1,18,0.6,26.13,M,-32.64,M,,*63
$GPRMC,185444.00,A,3720.069,N,12153.976,W,0.0,59.9,290421,,,A*17
$GPGGA,185444.10,3720.0687094,N,12153.9757796,W,1,18,0.6,26.13,M,-32.64,M,,*62
$GPRMC,185444.10,A,3720.069,N,12153.976,W,0.0,59.9,290421,,,A*16
$GPGGA,185444.20,3720.0687094,N,12153.9757796,W,1,18,0.6,26.13,M,-32.64,M,,*61
$GPRMC,185444.20,A,3720.069,N,12153.976,W,0.0,59.9,290421,,,A*15
$GPGGA,185444.30,3720.0687094,N,12153.9757796,W,1,18,0.6,26.13,M,-32.64,M,,*60
$GPRMC,185444.30,A,3720.069,N,12153.976,W,0.0,59.9,290421,,,A*14
$GPGGA,185444.40,3720.0687094,N,12153.9757796,W,1,18,0.6,26.13,M,-32.64,M,,*67
$GPRMC,185444.40,A,3720.069,N,12153.976,W,0.0,59.9,290421,,,A*13
$GPGGA,185444.50,3720.0687094,N,12153.9757796,W,1,18,0.6,26.13,M,-32.64,M,,*66
$GPRMC,185444.50,A,3720.069,N,12153.976,W,0.0,59.9,290421,,,A*12
$GPGGA,185444.60,3720.0687094,N,12153.9757796,W,1,18,0.6,26.13,M,-32.64,M,,*65
$GPRMC,185444.60,A,3720.069,N,12153.976,W,0.0,59.9,290421,,,A*11
$GPGGA,185444.70,3720.0687094,N,12153.9757796,W,1,18,0.6,26.13,M,-32.64,M,,*64
$GPRMC,185444.70,A,3720.069,N,12153.976,W,0.0,59.9,290421,,,A*10
$GPGGA,185444.80,3720.0687094,N,12153.9757796,W,1,18,0.6,26.13,M,-32.64,M,,*6B
$GPRMC,185444.80,A,3720.069,N,12153.976,W,0.0,59.9,290421,,,A*66
$GPGGA,185444.90,3720.0687094,N,12153.9757796,W,1,18,0.6,26.13,M,-32.64,M,,*6A
$GPRMC,185444.90,A,3720.069,N,12153.976,W,0.0,59.9,290421,,,A*65
$GPGGA,185445.00,3720.0687094,N,12153.9757796,W,1,18,0.6,26.13,M,-32.64,M,,*62
$GPRMC,185445.00,A,3720.069,N,12153.976,W,0.0,59.9,290421,,,A*16
$GPGGA,185445.10,3720.0687094,N,12153.9757796,W,1,18,0.6,26.13,M,-32.64,M,,*63
$GPRMC,185445.10,A,3720.069,N,12153.976,W,0.0,59.9,290421,,,A*17
$GPGGA,185445.20,3720.0687094,N,12153.9757796,W,1,18,0.6,26.13,M,-32.64,M,,*60
$GPRMC,185445.20,A,3720.069,N,12153.976,W,0.0,59.9,290421,,,A*14
$GPGGA,185445.30,3720.0687094,N,12153.9757796,W,1,18,0.6,26.13,M,-32.64,M,,*61
$GPRMC,185445.30,A,3720.069,N,12153.976,W,0.0,59.9,290421,,,A*15
$GPGGA,185445.40,3720.0687094,N,12153.9757795,W,1,18,0.6,26.13,M,-32.64,M,,*65
$GPRMC,185445.40,A,3720.069,N,12153.976,W,0.0,59.9,290421,,,A*12
$GPGGA,185445.50,3720.0687094,N,12153.9757795,W,1,18,0.6,26.13,M,-32.64,M,,*64
$GPRMC,185445.50,A,3720.069,N,12153.976,W,0.0,59.9,290421,,,A*13
$GPGGA,185445.60,3720.0687094,N,12153.9757795,W,1,18,0.6,26.13,M,-32.64,M,,*67
$GPRMC,185445.60,A,3720.069,N,12153.976,W,0.0,59.9,290421,,,A*10
$GPGGA,185445.70,3720.0687094,N,12153.9757794,W,1,18,0.6,26.13,M,-32.64,M,,*67
$GPRMC,185445.70,A,3720.069,N,12153.976,W,0.0,59.9,290421,,,A*11
$GPGGA,185445.80,3720.0687094,N,12153.9757795,W,1,18,0.6,26.13,M,-32.64,M,,*69
$GPRMC,185445.80,A,3720.069,N,12153.976,W,0.0,59.9,290421,,,A*1E
$GPGGA,185445.90,3720.0687093,N,12153.9757796,W,1,18,0.6,26.13,M,-32.64,M,,*6C
$GPRMC,185445.90,A,3720.069,N,12153.976,W,0.0,59.9,290421,,,A*60
$GPGGA,185446.00,3720.0687092,N,12153.9757797,W,1,18,0.6,26.13,M,-32.64,M,,*66
$GPRMC,185446.00,A,3720.069,N,12153.976,W,0.0,59.9,290421,,,A*15
$GPGGA,185446.10,3720.0687092,N,12153.9757797,W,1,18,0.6,26.13,M,-32.64,M,,*67
$GPRMC,185446.10,A,3720.069,N,12153.976,W,0.0,59.9,290421,,,A*14
$GPGGA,185446.20,3720.0687092,N,12153.9757797,W,1,18,0.6,26.13,M,-32.64,M,,*64
$GPRMC,185446.20,A,3720.069,N,12153.976,W,0.0,59.9,290421,,,A*17
$GPGGA,185446.30,3720.0687092,N,12153.9757797,W,1,18,0.6,26.13,M,-32.64,M,,*65
$GPRMC,185446.30,A,3720.069,N,12153.976,W,0.0,59.9,290421,,,A*16
$GPGGA,185446.40,3720.0687092,N,12153.9757797,W,1,18,0.6,26.13,M,-32.64,M,,*62
$GPRMC,185446.40,A,3720.069,N,12153.976,W,0.0,59.9,290421,,,A*11
$GPGGA,185446.50,3720.0687093,N,12153.9757797,W,1,18,0.6,26.13,M,-32.64,M,,*62
$GPRMC,185446.50,A,3720.069,N,12153.976,W,0.0,59.9,290421,,,A*10
$GPGGA,185446.60,3720.0687093,N,12153.9757797,W,1,18,0.6,26.13,M,-32.64,M,,*61
$GPRMC,185446.60,A,3720.069,N,12153.976,W,0.0,59.9,290421,,,A*13
$GPGGA,185446.70,3720.0687093,N,12153.9757796,W,1,18,0.6,26.13,M,-32.64,M,,*61
$GPRMC,185446.70,A,3720.069,N,12153.976,W,0.0,59.9,290421,,,A*12
$GPGGA,185446.80,3720.0687093,N,12153.9757795,W,1,18,0.6,26.13,M,-32.64,M,,*6D
$GPRMC,185446.80,A,3720.069,N,12153.976,W,0.0,59.9,290421,,,A*64
$GPGGA,185446.90,3720.0687093,N,12153.9757795,W,1,18,0.6,26.13,M,-32.64,M,,*6C
$GPRMC,185446.90,A,3720.069,N,12153.976,W,0.0,59.9,290421,,,A*63
$GPGGA,185447.00,3720.0687093,N,12153.9757795,W,1,18,0.6,26.13,M,-32.64,M,,*64
$GPRMC,185447.00,A,3720.069,N,12153.976,W,0.0,59.9,290421,,,A*14
$GPGGA,185447.10,3720.0687093,N,12153.9757794,W,1,18,0.6,26.13,M,-32.64,M,,*64
$GPRMC,185447.10,A,3720.069,N,12153.976,W,0.0,59.9,290421,,,A*15
$GPGGA,185447.20,3720.0687093,N,12153.9757794,W,1,18,0.6,26.13,M,-32.64,M,,*67
$GPRMC,185447.20,A,3720.069,N,12153.976,W,0.0,59.9,290421,,,A*16
$GPGGA,185447.30,3720.0687093,N,12153.9757794,W,1,18,0.6,26.13,M,-32.64,M,,*66
$GPRMC,185447.30,A,3720.069,N,12153.976,W,0.0,59.9,290421,,,A*17
$GPGGA,185447.40,3720.0687093,N,12153.9757793,W,1,18,0.6,26.13,M,-32.64,M,,*66
$GPRMC,185447.40,A,3720.069,N,12153.976,W,0.0,59.9,290421,,,A*10
$GPGGA,185447.50,3720.0687093,N,12153.9757793,W,1,18,0.6,26.13,M,-32.64,M,,*67
$GPRMC,185447.50,A,3720.069,N,12153.976,W,0.0,59.9,290421,,,A*11
$GPGGA,185447.60,3720.0687093,N,12153.9757792,W,1,18,0.6,26.13,M,-32.64,M,,*65
$GPRMC,185447.60,A,3720.069,N,12153.976,W,0.0,59.9,290421,,,A*12
$GPGGA,185447.70,3720.0687094,N,12153.9757792,W,1,18,0.6,26.13,M,-32.64,M,,*63
$GPRMC,185447.70,A,3720.069,N,12153.976,W,0.0,59.9,290421,,,A*13
$GPGGA,185447.80,3720.0687094,N,12153.9757792,W,1,18,0.6,26.13,M,-32.64,M,,*6C
$GPRMC,185447.80,A,3720.069,N,12153.976,W,0.0,59.9,290421,,,A*63
$GPGGA,185447.90,3720.0687094,N,12153.9757791,W,1,18,0.6,26.13,M,-32.64,M,,*6E
$GPRMC,185447.90,A,3720.069,N,12153.976,W,0.0,59.9,290421,,,A*66
$GPGGA,185448.00,3720.0687095,N,12153.9757791,W,1,18,0.6,26.13,M,-32.64,M,,*69
$GPRMC,185448.00,A,3720.069,N,12153.976,W,0.0,59.9,290421,,,A*1B
$GPGGA,185448.10,3720.0687095,N,12153.9757791,W,1,18,0.6,26.13,M,-32.64,M,,*68
$GPRMC,185448.10,A,3720.069,N,12153.976,W,0.0,59.9,290421,,,A*1A
$GPGGA,185448.20,3720.0687095,N,12153.9757791,W,1,18,0.6,26.13,M,-32.64,M,,*6B
$GPRMC,185448.20,A,3720.069,N,12153.976,W,0.0,59.9,290421,,,A*60
$GPGGA,185448.30,3720.0687095,N,12153.9757790,W,1,18,0.6,26.13,M,-32.64,M,,*6B
$GPRMC,185448.30,A,3720.069,N,12153.976,W,0.0,59.9,290421,,,A*61
$GPGGA,185448.40,3720.0687095,N,12153.9757790,W,1,18,0.6,26.13,M,-32.64,M,,*6C
$GPRMC,185448.40,A,3720.069,N,12153.976,W,0.0,59.9,290421,,,A*60
$GPGGA,185448.50,3720.0687095,N,12153.9757790,W,1,18,0.6,26.13,M,-32.64,M,,*6D
$GPRMC,185448.50,A,3720.069,N,12153.976,W,0.0,59.9,290421,,,A*67
$GPGGA,185448.60,3720.0687095,N,12153.9757789,W,1,18,0.6,26.13,M,-32.64,M,,*66
$GPRMC,185448.60,A,3720.069,N,12153.976,W,0.0,59.9,290421,,,A*1D
$GPGGA,185448.70,3720.0687095,N,12153.9757789,W,1,18,0.6,26.13,M,-32.64,M,,*67
$GPRMC,185448.70,A,3720.069,N,12153.976,W,0.0,59.9,290421,,,A*1C
$GPGGA,185448.80,3720.0687095,N,12153.9757788,W,1,18,0.6,26.13,M,-32.64,M,,*69
$GPRMC,185448.80,A,3720.069,N,12153.976,W,0.0,59.9,290421,,,A*13
$GPGGA,185448.90,3720.0687095,N,12153.9757788,W,1,18,0.6,26.13,M,-32.64,M,,*68
$GPRMC,185448.90,A,3720.069,N,12153.976,W,0.0,59.9,290421,,,A*12
$GPGGA,185449.00,3720.0687095,N,12153.9757788,W,1,18,0.6,26.13,M,-32.64,M,,*60
$GPRMC,185449.00,A,3720.069,N,12153.976,W,0.0,59.9,290421,,,A*1A
$GPGGA,185449.10,3720.0687095,N,12153.9757788,W,1,18,0.6,26.13,M,-32.64,M,,*61
$GPRMC,185449.10,A,3720.069,N,12153.976,W,0.0,59.9,290421,,,A*1B
$GPGGA,185449.20,3720.0687095,N,12153.9757788,W,1,18,0.6,26.13,M,-32.64,M,,*62
$GPRMC,185449.20,A,3720.069,N,12153.976,W,0.0,59.9,290421,,,A*18
$GPGGA,185449.30,3720.0687095,N,12153.9757788,W,1,18,0.6,26.13,M,-32.64,M,,*63
$GPRMC,185449.30,A,3720.069,N,12153.976,W,0.0,59.9,290421,,,A*19
$GPGGA,185449.40,3720.0687095,N,12153.9757788,W,1,18,0.6,26.13,M,-32.64,M,,*64
$GPRMC,185449.40,A,3720.069,N,12153.976,W,0.0,59.9,290421,,,A*1E
$GPGGA,185449.50,3720.0687095,N,12153.9757788,W,1,18,0.6,26.13,M,-32.64,M,,*65
$GPRMC,185449.50,A,3720.069,N,12153.976,W,0.0,59.9,290421,,,A*1F
$GPGGA,185449.60,3720.0687095,N,12153.9757788,W,1,18,0.6,26.13,M,-32.64,M,,*66
$GPRMC,185449.60,A,3720.069,N,12153.976,W,0.0,59.9,290421,,,A*1C
$GPGGA,185449.70,3720.0687094,N,12153.9757787,W,1,18,0.6,26.13,M,-32.64,M,,*69
$GPRMC,185449.70,A,3720.069,N,12153.976,W,0.0,59.9,290421,,,A*1D
$GPGGA,185449.80,3720.0687094,N,12153.9757787,W,1,18,0.6,26.13,M,-32.64,M,,*66
$GPRMC,185449.80,A,3720.069,N,12153.976,W,0.0,59.9,290421,,,A*12
$GPGGA,185449.90,3720.0687094,N,12153.9757787,W,1,18,0.6,26.13,M,-32.64,M,,*67
$GPRMC,185449.90,A,3720.069,N,12153.976,W,0.0,59.9,290421,,,A*13
$GPGGA,185450.00,3720.0687095,N,12153.9757788,W,1,18,0.6,26.13,M,-32.64,M,,*68
$GPRMC,185450.00,A,3720.069,N,12153.976,W,0.0,59.9,290421,,,A*12
$GPGGA,185450.10,3720.0687095,N,12153.9757788,W,1,18,0.6,26.13,M,-32.64,M,,*69
$GPRMC,185450.10,A,3720.069,N,12153.976,W,0.0,59.9,290421,,,A*13
$GPGGA,185450.20,3720.0687095,N,12153.9757788,W,1,18,0.6,26.13,M,-32.64,M,,*6A
$GPRMC,185450.20,A,3720.069,N,12153.976,W,0.0,59.9,290421,,,A*6B
$GPGGA,185450.30,3720.0687095,N,12153.9757788,W,1,18,0.6,26.13,M,-32.64,M,,*6B
$GPRMC,185450.30,A,3720.069,N,12153.976,W,0.0,59.9,290421,,,A*68
$GPGGA,185450.40,3720.0687095,N,12153.9757788,W,1,18,0.6,26.13,M,-32.64,M,,*6C
$GPRMC,185450.40,A,3720.069,N,12153.976,W,0.0,59.9,290421,,,A*69
$GPGGA,185450.50,3720.0687095,N,12153.9757788,W,1,18,0.6,26.13,M,-32.64,M,,*6D
$GPRMC,185450.50,A,3720.069,N,12153.976,W,0.0,59.9,290421,,,A*6E
$GPGGA,185450.60,3720.0687095,N,12153.9757788,W,1,18,0.6,26.13,M,-32.64,M,,*6E
$GPRMC,185450.60,A,3720.069,N,12153.976,W,0.0,59.9,290421,,,A*6F
$GPGGA,185450.70,3720.0687094,N,12153.9757788,W,1,18,0.6,26.13,M,-32.64,M,,*6E
$GPRMC,185450.70,A,3720.069,N,12153.976,W,0.0,59.9,290421,,,A*6E
$GPGGA,185450.80,3720.0687095,N,12153.9757788,W,1,18,0.6,26.13,M,-32.64,M,,*60
$GPRMC,185450.80,A,3720.069,N,12153.976,W,0.0,59.9,290421,,,A*1A
$GPGGA,185450.90,3720.0687095,N,12153.9757788,W,1,18,0.6,26.13,M,-32.64,M,,*61
$GPRMC,185450.90,A,3720.069,N,12153.976,W,0.0,59.9,290421,,,A*1B
$GPGGA,185451.00,3720.0687094,N,12153.9757787,W,1,18,0.6,26.13,M,-32.64,M,,*67
$GPRMC,185451.00,A,3720.069,N,12153.976,W,0.0,59.9,290421,,,A*13
$GPGGA,185451.10,3720.0687095,N,12153.9757788,W,1,18,0.6,26.13,M,-32.64,M,,*68
$GPRMC,185451.10,A,3720.069,N,12153.976,W,0.0,59.9,290421,,,A*12
$GPGGA,185451.20,3720.0687095,N,12153.9757788,W,1,18,0.6,26.13,M,-32.64,M,,*6B
$GPRMC,185451.20,A,3720.069,N,12153.976,W,0.0,59.9,290421,,,A*68
$GPGGA,185451.30,3720.0687095,N,12153.9757788,W,1,18,0.6,26.13,M,-32.64,M,,*6A
$GPRMC,185451.30,A,3720.069,N,12153.976,W,0.0,59.9,290421,,,A*6B
$GPGGA,185451.40,3720.0687095,N,12153.9757788,W,1,18,0.6,26.13,M,-32.64,M,,*6D
$GPRMC,185451.40,A,3720.069,N,12153.976,W,0.0,59.9,290421,,,A*6E
$GPGGA,185451.50,3720.0687095,N,12153.9757788,W,1,18,0.6,26.13,M,-32.64,M,,*6C
$GPRMC,185451.50,A,3720.069,N,12153.976,W,0.0,59.9,290421,,,A*69
$GPGGA,185451.60,3720.0687095,N,12153.9757788,W,1,18,0.6,26.13,M,-32.64,M,,*6F
$GPRMC,185451.60,A,3720.069,N,12153.976,W,0.0,59.9,290421,,,A*6C
$GPGGA,185451.70,3720.0687095,N,12153.9757788,W,1,18,0.6,26.13,M,-32.64,M,,*6E
$GPRMC,185451.70,A,3720.069,N,12153.976,W,0.0,59.9,290421,,,A*6F
$GPGGA,185451.80,3720.0687095,N,12153.9757788,W,1,18,0.6,26.13,M,-32.64,M,,*61
$GPRMC,185451.80,A,3720.069,N,12153.976,W,0.0,59.9,290421,,,A*1B
$GPGGA,185451.90,3720.0687095,N,12153.9757788,W,1,18,0.6,26.13,M,-32.64,M,,*60
$GPRMC,185451.90,A,3720.069,N,12153.976,W,0.0,59.9,290421,,,A*1A
$GPGGA,185452.00,3720.0687095,N,12153.9757788,W,1,18,0.6,26.13,M,-32.64,M,,*6A
$GPRMC,185452.00,A,3720.069,N,12153.976,W,0.0,59.9,290421,,,A*6B
$GPGGA,185452.10,3720.0687095,N,12153.9757788,W,1,18,0.6,26.13,M,-32.64,M,,*6B
$GPRMC,185452.10,A,3720.069,N,12153.976,W,0.0,59.9,290421,,,A*68
$GPGGA,185452.20,3720.0687095,N,12153.9757788,W,1,18,0.6,26.13,M,-32.64,M,,*68
$GPRMC,185452.20,A,3720.069,N,12153.976,W,0.0,59.9,290421,,,A*12
$GPGGA,185452.30,3720.0687095,N,12153.9757788,W,1,18,0.6,26.13,M,-32.64,M,,*69
$GPRMC,185452.30,A,3720.069,N,12153.976,W,0.0,59.9,290421,,,A*13
$GPGGA,185452.40,3720.0687095,N,12153.9757788,W,1,18,0.6,26.13,M,-32.64,M,,*6E
$GPRMC,185452.40,A,3720.069,N,12153.976,W,0.0,59.9,290421,,,A*6F
$GPGGA,185452.50,3720.0687095,N,12153.9757788,W,1,18,0.6,26.13,M,-32.64,M,,*6F
$GPRMC,185452.50,A,3720.069,N,12153.976,W,0.0,59.9,290421,,,A*6C
$GPGGA,185452.60,3720.0687095,N,12153.9757788,W,1,18,0.6,26.13,M,-32.64,M,,*6C
$GPRMC,185452.60,A,3720.069,N,12153.976,W,0.0,59.9,290421,,,A*69
$GPGGA,185452.70,3720.0687095,N,12153.9757788,W,1,18,0.6,26.13,M,-32.64,M,,*6D
$GPRMC,185452.70,A,3720.069,N,12153.976,W,0.0,59.9,290421,,,A*6E
$GPGGA,185452.80,3720.0687095,N,12153.9757788,W,1,18,0.6,26.13,M,-32.64,M,,*62
$GPRMC,185452.80,A,3720.069,N,12153.976,W,0.0,59.9,290421,,,A*18
$GPGGA,185452.90,3720.0687095,N,12153.9757788,W,1,18,0.6,26.13,M,-32.64,M,,*63
$GPRMC,185452.90,A,3720.069,N,12153.976,W,0.0,59.9,290421,,,A*19
$GPGGA,185453.00,3720.0687095,N,12153.9757788,W,1,18,0.6,26.13,M,-32.64,M,,*6B
$GPRMC,185453.00,A,3720.069,N,12153.976,W,0.0,59.9,290421,,,A*68
$GPGGA,185453.10,3720.0687095,N,12153.9757788,W,1,18,0.6,26.13,M,-32.64,M,,*6A
$GPRMC,185453.10,A,3720.069,N,12153.976,W,0.0,59.9,290421,,,A*6B
$GPGGA,185453.20,3720.0687095,N,12153.9757788,W,1,18,0.6,26.13,M,-32.64,M,,*69
$GPRMC,185453.20,A,3720.069,N,12153.976,W,0.0,59.9,290421,,,A*13
$GPGGA,185453.30,3720.0687095,N,12153.9757788,W,1,18,0.6,26.13,M,-32.64,M,,*68
$GPRMC,185453.30,A,3720.069,N,12153.976,W,0.0,59.9,290421,,,A*12
$GPGGA,185453.40,3720.0687095,N,12153.9757788,W,1,18,0.6,26.13,M,-32.64,M,,*6F
$GPRMC,185453.40,A,3720.069,N,12153.976,W,0.0,59.9,290421,,,A*6C
$GPGGA,185453.50,3720.0687095,N,12153.9757788,W,1,18,0.6,26.13,M,-32.64,M,,*6E
$GPRMC,185453.50,A,3720.069,N,12153.976,W,0.0,59.9,290421,,,A*6F
$GPGGA,185453.60,3720.0687095,N,12153.9757788,W,1,18,0.6,26.13,M,-32.64,M,,*6D
$GPRMC,185453.60,A,3720.069,N,12153.976,W,0.0,59.9,290421,,,A*6E
$GPGGA,185453.70,3720.0687095,N,12153.9757788,W,1,18,0.6,26.13,M,-32.64,M,,*6C
$GPRMC,185453.70,A,3720.069,N,12153.976,W,0.0,59.9,290421,,,A*69
$GPGGA,185453.80,3720.0687095,N,12153.9757788,W,1,18,0.6,26.13,M,-32.64,M,,*63
$GPRMC,185453.80,A,3720.069,N,12153.976,W,0.0,59.9,290421,,,A*19
$GPGGA,185453.90,3720.0687095,N,12153.9757788,W,1,18,0.6,26.13,M,-32.64,M,,*62
$GPRMC,185453.90,A,3720.069,N,12153.976,W,0.0,59.9,290421,,,A*18
$GPGGA,185454.00,3720.0687095,N,12153.9757788,W,1,18,0.6,26.13,M,-32.64,M,,*6C
$GPRMC,185454.00,A,3720.069,N,12153.976,W,0.0,59.9,290421,,,A*69
$GPGGA,185454.10,3720.0687095,N,12153.9757788,W,1,18,0.6,26.13,M,-32.64,M,,*6D
$GPRMC,185454.10,A,3720.069,N,12153.976,W,0.0,59.9,290421,,,A*6E
$GPGGA,185454.20,3720.0687095,N,12153.9757788,W,1,18,0.6,26.13,M,-32.64,M,,*6E
$GPRMC,185454.20,A,3720.069,N,12153.976,W,0.0,59.9,290421,,,A*6F
$GPGGA,185454.30,3720.0687095,N,12153.9757788,W,1,18,0.6,26.13,M,-32.64,M,,*6F
$GPRMC,185454.30,A,3720.069,N,12153.976,W,0.0,59.9,290421,,,A*6C
$GPGGA,185454.40,3720.0687095,N,12153.9757788,W,1,18,0.6,26.13,M,-32.64,M,,*68
$GPRMC,185454.40,A,3720.069,N,12153.976,W,0.0,59.9,290421,,,A*12
$GPGGA,185454.50,3720.0687095,N,12153.9757788,W,1,18,0.6,26.13,M,-32.64,M,,*69
$GPRMC,185454.50,A,3720.069,N,12153.976,W,0.0,59.9,290421,,,A*13
$GPGGA,185454.60,3720.0687095,N,12153.9757788,W,1,18,0.6,26.13,M,-32.64,M,,*6A
$GPRMC,185454.60,A,3720.069,N,12153.976,W,0.0,59.9,290421,,,A*6B
$GPGGA,185454.70,3720.0687095,N,12153.9757788,W,1,18,0.6,26.13,M,-32.64,M,,*6B
$GPRMC,185454.70,A,3720.069,N,12153.976,W,0.0,59.9,290421,,,A*68
$GPGGA,185454.80,3720.0687095,N,12153.9757788,W,1,18,0.6,26.13,M,-32.64,M,,*64
$GPRMC,185454.80,A,3720.069,N,12153.976,W,0.0,59.9,290421,,,A*1E
$GPGGA,185454.90,3720.0687095,N,12153.9757788,W,1,18,0.6,26.13,M,-32.64,M,,*65
$GPRMC,185454.90,A,3720.069,N,12153.976,W,0.0,59.9,290421,,,A*1F
$GPGGA,185455.00,3720.0687095,N,12153.9757788,W,1,18,0.6,26.13,M,-32.64,M,,*6D
$GPRMC,185455.00,A,3720.069,N,12153.976,W,0.0,59.9,290421,,,A*6E
$GPGGA,185455.10,3720.0687095,N,12153.9757788,W,1,18,0.6,26.13,M,-32.64,M,,*6C
$GPRMC,185455.10,A,3720.069,N,12153.976,W,0.0,59.9,290421,,,A*69
$GPGGA,185455.20,3720.0687095,N,12153.9757788,W,1,18,0.6,26.13,M,-32.64,M,,*6F
$GPRMC,185455.20,A,3720.069,N,12153.976,W,0.0,59.9,290421,,,A*6C
$GPGGA,185455.30,3720.0687095,N,12153.9757788,W,1,18,0.6,26.13,M,-32.64,M,,*6E
$GPRMC,185455.30,A,3720.069,N,12153.976,W,0.0,59.9,290421,,,A*6F
$GPGGA,185455.40,3720.0687095,N,12153.9757788,W,1,18,0.6,26.13,M,-32.64,M,,*69
$GPRMC,185455.40,A,3720.069,N,12153.976,W,0.0,59.9,290421,,,A*13
$GPGGA,185455.50,3720.0687095,N,12153.9757788,W,1,18,0.6,26.13,M,-32.64,M,,*68
$GPRMC,185455.50,A,3720.069,N,12153.976,W,0.0,59.9,290421,,,A*12
$GPGGA,185455.60,3720.0687095,N,12153.9757788,W,1,18,0.6,26.13,M,-32.64,M,,*6B
$GPRMC,185455.60,A,3720.069,N,12153.976,W,0.0,59.9,290421,,,A*68
$GPGGA,185455.70,3720.0687095,N,12153.9757788,W,1,18,0.6,26.13,M,-32.64,M,,*6A
$GPRMC,185455.70,A,3720.069,N,12153.976,W,0.0,59.9,290421,,,A*6B
$GPGGA,185455.80,3720.0687095,N,12153.9757788,W,1,18,0.6,26.13,M,-32.64,M,,*65
$GPRMC,185455.80,A,3720.069,N,12153.976,W,0.0,59.9,290421,,,A*1F
$GPGGA,185455.90,3720.0687095,N,12153.9757788,W,1,18,0.6,26.13,M,-32.64,M,,*64
$GPRMC,185455.90,A,3720.069,N,12153.976,W,0.0,59.9,290421,,,A*1E
$GPGGA,185456.00,3720.0687095,N,12153.9757788,W,1,18,0.6,26.13,M,-32.64,M,,*6E
$GPRMC,185456.00,A,3720.069,N,12153.976,W,0.0,59.9,290421,,,A*6F
$GPGGA,185456.10,3720.0687095,N,12153.9757788,W,1,18,0.6,26.13,M,-32.64,M,,*6F
$GPRMC,185456.10,A,3720.069,N,12153.976,W,0.0,59.9,290421,,,A*6C
$GPGGA,185456.20,3720.0687095,N,12153.9757788,W,1,18,0.6,26.13,M,-32.64,M,,*6C
$GPRMC,185456.20,A,3720.069,N,12153.976,W,0.0,59.9,290421,,,A*69
$GPGGA,185456.30,3720.0687095,N,12153.9757788,W,1,18,0.6,26.13,M,-32.64,M,,*6D
$GPRMC,185456.30,A,3720.069,N,12153.976,W,0.0,59.9,290421,,,A*6E
$GPGGA,185456.40,3720.0687095,N,12153.9757788,W,1,18,0.6,26.13,M,-32.64,M,,*6A
$GPRMC,185456.40,A,3720.069,N,12153.976,W,0.0,59.9,290421,,,A*6B
$GPGGA,185456.50,3720.0687095,N,12153.9757788,W,1,18,0.6,26.13,M,-32.64,M,,*6B
$GPRMC,185456.50,A,3720.069,N,12153.976,W,0.0,59.9,290421,,,A*68
$GPGGA,185456.60,3720.0687095,N,12153.9757788,W,1,18,0.6,26.13,M,-32.64,M,,*68
$GPRMC,185456.60,A,3720.069,N,12153.976,W,0.0,59.9,290421,,,A*12
$GPGGA,185456.70,3720.0687095,N,12153.9757788,W,1,18,0.6,26.13,M,-32.64,M,,*69
$GPRMC,185456.70,A,3720.069,N,12153.976,W,0.0,59.9,290421,,,A*13
$GPGGA,185456.80,3720.0687095,N,12153.9757788,W,1,18,0.6,26.13,M,-32.64,M,,*66
$GPRMC,185456.80,A,3720.069,N,12153.976,W,0.0,59.9,290421,,,A*1C
$GPGGA,185456.90,3720.0687095,N,12153.9757788,W,1,18,0.6,26.13,M,-32.64,M,,*67
$GPRMC,185456.90,A,3720.069,N,12153.976,W,0.0,59.9,290421,,,A*1D
$GPGGA,185457.00,3720.0687095,N,12153.9757788,W,1,18,0.6,26.13,M,-32.64,M,,*6F
$GPRMC,185457.00,A,3720.069,N,12153.976,W,0.0,59.9,290421,,,A*6C
$GPGGA,185457.10,3720.0687095,N,12153.9757788,W,1,18,0.6,26.13,M,-32.64,M,,*6E
$GPRMC,185457.10,A,3720.069,N,12153.976,W,0.0,59.9,290421,,,A*6F
$GPGGA,185457.20,3720.0687095,N,12153.9757788,W,1,18,0.6,26.13,M,-32.64,M,,*6D
$GPRMC,185457.20,A,3720.069,N,12153.976,W,0.0,59.9,290421,,,A*6E
$GPGGA,185457.30,3720.0687095,N,12153.9757788,W,1,18,0.6,26.13,M,-32.64,M,,*6C
$GPRMC,185457.30,A,3720.069,N,12153.976,W,0.0,59.9,290421,,,A*69
$GPGGA,185457.40,3720.0687095,N,12153.9757788,W,1,18,0.6,26.13,M,-32.64,M,,*6B
$GPRMC,185457.40,A,3720.069,N,12153.976,W,0.0,59.9,290421,,,A*68
$GPGGA,185457.50,3720.0687095,N,12153.9757788,W,1,18,0.6,26.13,M,-32.64,M,,*6A
$GPRMC,185457.50,A,3720.069,N,12153.976,W,0.0,59.9,290421,,,A*6B
$GPGGA,185457.60,3720.0687095,N,12153.9757788,W,1,18,0.6,26.13,M,-32.64,M,,*69
$GPRMC,185457.60,A,3720.069,N,12153.976,W,0.0,59.9,290421,,,A*13
$GPGGA,185457.70,3720.0687095,N,12153.9757788,W,1,18,0.6,26.13,M,-32.64,M,,*68
$GPRMC,185457.70,A,3720.069,N,12153.976,W,0.0,59.9,290421,,,A*12
$GPGGA,185457.80,3720.0687095,N,12153.9757788,W,1,18,0.6,26.13,M,-32.64,M,,*67
$GPRMC,185457.80,A,3720.069,N,12153.976,W,0.0,59.9,290421,,,A*1D
$GPGGA,185457.90,3720.0687095,N,12153.9757788,W,1,18,0.6,26.13,M,-32.64,M,,*66
$GPRMC,185457.90,A,3720.069,N,12153.976,W,0.0,59.9,290421,,,A*1C
$GPGGA,185458.00,3720.0687095,N,12153.9757788,W,1,18,0.6,26.13,M,-32.64,M,,*60
$GPRMC,185458.00,A,3720.069,N,12153.976,W,0.0,59.9,290421,,,A*1A
$GPGGA,185458.10,3720.0687095,N,12153.9757788,W,1,18,0.6,26.13,M,-32.64,M,,*61
$GPRMC,185458.10,A,3720.069,N,12153.976,W,0.0,59.9,290421,,,A*1B
$GPGGA,185458.20,3720.0687095,N,12153.9757788,W,1,18,0.6,26.13,M,-32.64,M,,*62
$GPRMC,185458.20,A,3720.069,N,12153.976,W,0.0,59.9,290421,,,A*18
$GPGGA,185458.30,3720.0687095,N,12153.9757788,W,1,18,0.6,26.13,M,-32.64,M,,*63
$GPRMC,185458.30,A,3720.069,N,12153.976,W,0.0,59.9,290421,,,A*19
$GPGGA,185458.40,3720.0687095,N,12153.9757788,W,1,18,0.6,26.13,M,-32.64,M,,*64
$GPRMC,185458.40,A,3720.069,N,12153.976,W,0.0,59.9,290421,,,A*1E
$GPGGA,185458.50,3720.0687095,N,12153.9757788,W,1,18,0.6,26.13,M,-32.64,M,,*65
$GPRMC,185458.50,A,3720.069,N,12153.976,W,0.0,59.9,290421,,,A*1F
$GPGGA,185458.60,3720.0687095,N,12153.9757788,W,1,18,0.6,26.13,M,-32.64,M,,*66
$GPRMC,185458.60,A,3720.069,N,12153.976,W,0.0,59.9,290421,,,A*1C
$GPGGA,185458.70,3720.0687095,N,12153.9757788,W,1,18,0.6,26.13,M,-32.64,M,,*67
$GPRMC,185458.70,A,3720.069,N,12153.976,W,0.0,59.9,290421,,,A*1D
$GPGGA,185458.80,3720.0687095,N,12153.9757788,W,1,18,0.6,26.13,M,-32.64,M,,*68
$GPRMC,185458.80,A,3720.069,N,12153.976,W,0.0,59.9,290421,,,A*12
$GPGGA,185458.90,3720.0687095,N,12153.9757788,W,1,18,0.6,26.13,M,-32.64,M,,*69
$GPRMC,185458.90,A,3720.069,N,12153.976,W,0.0,59.9,290421,,,A*13
$GPGGA,185459.00,3720.0687095,N,12153.9757788,W,1,18,0.6,26.13,M,-32.64,M,,*61
$GPRMC,185459.00,A,3720.069,N,12153.976,W,0.0,59.9,290421,,,A*1B
$GPGGA,185459.10,3720.0687095,N,12153.9757788,W,1,18,0.6,26.13,M,-32.64,M,,*60
$GPRMC,185459.10,A,3720.069,N,12153.976,W,0.0,59.9,290421,,,A*1A
$GPGGA,185459.20,3720.0687095,N,12153.9757788,W,1,18,0.6,26.13,M,-32.64,M,,*63
$GPRMC,185459.20,A,3720.069,N,12153.976,W,0.0,59.9,290421,,,A*19
$GPGGA,185459.30,3720.0687095,N,12153.9757788,W,1,18,0.6,26.13,M,-32.64,M,,*62
$GPRMC,185459.30,A,3720.069,N,12153.976,W,0.0,59.9,290421,,,A*18
$GPGGA,185459.40,3720.0687095,N,12153.9757788,W,1,18,0.6,26.13,M,-32.64,M,,*65
$GPRMC,185459.40,A,3720.069,N,12153.976,W,0.0,59.9,290421,,,A*1F
$GPGGA,185459.50,3720.0687095,N,12153.9757788,W,1,18,0.6,26.13,M,-32.64,M,,*64
$GPRMC,185459.50,A,3720.069,N,12153.976,W,0.0,59.9,290421,,,A*1E
$GPGGA,185459.60,3720.0687095,N,12153.9757788,W,1,18,0.6,26.13,M,-32.64,M,,*67
$GPRMC,185459.60,A,3720.069,N,12153.976,W,0.0,59.9,290421,,,A*1D
$GPGGA,185459.70,3720.0687095,N,12153.9757788,W,1,18,0.6,26.13,M,-32.64,M,,*66
$GPRMC,185459.70,A,3720.069,N,12153.976,W,0.0,59.9,290421,,,A*1C
$GPGGA,185459.80,3720.0687095,N,12153.9757788,W,1,18,0.6,26.13,M,-32.64,M,,*69
$GPRMC,185459.80,A,3720.069,N,12153.976,W,0.0,59.9,290421,,,A*13
$GPGGA,185459.90,3720.0687095,N,12153.9757788,W,1,18,0.6,26.13,M,-32.64,M,,*68
$GPRMC,185459.90,A,3720.069,N,12153.976,W,0.0,59.9,290421,,,A*12
$GPGGA,185500.00,3720.0687095,N,12153.9757788,W,1,18,0.6,26.13,M,-32.64,M,,*6C
$GPRMC,185500.00,A,3720.069,N,12153.976,W,0.0,59.9,290421,,,A*69
$GPGGA,185500.10,3720.0687095,N,12153.9757788,W,1,18,0.6,26.13,M,-32.64,M,,*6D
$GPRMC,185500.10,A,3720.069,N,12153.976,W,0.0,59.9,290421,,,A*6E
$GPGGA,185500.20,3720.0687095,N,12153.9757788,W,1,18,0.6,26.13,M,-32.64,M,,*6E
$GPRMC,185500.20,A,3720.069,N,12153.976,W,0.0,59.9,290421,,,A*6F
$GPGGA,185500.30,3720.0687095,N,12153.9757788,W,1,18,0.6,26.13,M,-32.64,M,,*6F
$GPRMC,185500.30,A,3720.069,N,12153.976,W,0.0,59.9,290421,,,A*6C
$GPGGA,185500.40,3720.0687095,N,12153.9757788,W,1,18,0.6,26.13,M,-32.64,M,,*68
$GPRMC,185500.40,A,3720.069,N,12153.976,W,0.0,59.9,290421,,,A*12
$GPGGA,185500.50,3720.0687095,N,12153.9757788,W,1,18,0.6,26.13,M,-32.64,M,,*69
$GPRMC,185500.50,A,3720.069,N,12153.976,W,0.0,59.9,290421,,,A*13
$GPGGA,185500.60,3720.0687095,N,12153.9757788,W,1,18,0.6,26.13,M,-32.64,M,,*6A
$GPRMC,185500.60,A,3720.069,N,12153.976,W,0.0,59.9,290421,,,A*6B
$GPGGA,185500.70,3720.0687095,N,12153.9757788,W,1,18,0.6,26.13,M,-32.64,M,,*6B
$GPRMC,185500.70,A,3720.069,N,12153.976,W,0.0,59.9,290421,,,A*68
$GPGGA,185500.80,3720.0687095,N,12153.9757788,W,1,18,0.6,26.13,M,-32.64,M,,*64
$GPRMC,185500.80,A,3720.069,N,12153.976,W,0.0,59.9,290421,,,A*1E
$GPGGA,185500.90,3720.0687095,N,12153.9757788,W,1,18,0.6,26.13,M,-32.64,M,,*65
$GPRMC,185500.90,A,3720.069,N,12153.976,W,0.0,59.9,290421,,,A*1F
$GPGGA,185501.00,3720.0687095,N,12153.9757788,W,1,18,0.6,26.13,M,-32.64,M,,*6D
$GPRMC,185501.00,A,3720.069,N,12153.976,W,0.0,59.9,290421,,,A*6E
$GPGGA,185501.10,3720.0687095,N,12153.9757788,W,1,18,0.6,26.13,M,-32.64,M,,*6C
$GPRMC,185501.10,A,3720.069,N,12153.976,W,0.0,59.9,290421,,,A*69
$GPGGA,185501.20,3720.0687095,N,12153.9757788,W,1,18,0.6,26.13,M,-32.64,M,,*6F
$GPRMC,185501.20,A,3720.069,N,12153.976,W,0.0,59.9,290421,,,A*6C
$GPGGA,185501.30,3720.0687095,N,12153.9757788,W,1,18,0.6,26.13,M,-32.64,M,,*6E
$GPRMC,185501.30,A,3720.069,N,12153.976,W,0.0,59.9,290421,,,A*6F
$GPGGA,185501.40,3720.0687095,N,12153.9757788,W,1,18,0.6,26.13,M,-32.64,M,,*69
$GPRMC,185501.40,A,3720.069,N,12153.976,W,0.0,59.9,290421,,,A*13
$GPGGA,185501.50,3720.0687095,N,12153.9757788,W,1,18,0.6,26.13,M,-32.64,M,,*68
$GPRMC,185501.50,A,3720.069,N,12153.976,W,0.0,59.9,290421,,,A*12
$GPGGA,185501.60,3720.0687095,N,12153.9757788,W,1,18,0.6,26.13,M,-32.64,M,,*6B
$GPRMC,185501.60,A,3720.069,N,12153.976,W,0.0,59.9,290421,,,A*68
$GPGGA,185501.70,3720.0687095,N,12153.9757788,W,1,18,0.6,26.13,M,-32.64,M,,*6A
$GPRMC,185501.70,A,3720.069,N,12153.976,W,0.0,59.9,290421,,,A*6B
$GPGGA,185501.80,3720.0687095,N,12153.9757788,W,1,18,0.6,26.13,M,-32.64,M,,*65
$GPRMC,185501.80,A,3720.069,N,12153.976,W,0.0,59.9,290421,,,A*1F
$GPGGA,185501.90,3720.0687095,N,12153.9757788,W,1,18,0.6,26.13,M,-32.64,M,,*64
$GPRMC,185501.90,A,3720.069,N,12153.976,W,0.0,59.9,290421,,,A*1E
$GPGGA,185502.00,3720.0687095,N,12153.9757788,W,1,18,0.6,26.13,M,-32.64,M,,*6E
$GPRMC,185502.00,A,3720.069,N,12153.976,W,0.0,59.9,290421,,,A*6F
$GPGGA,185502.10,3720.0687095,N,12153.9757788,W,1,18,0.6,26.13,M,-32.64,M,,*6F
$GPRMC,185502.10,A,3720.069,N,12153.976,W,0.0,59.9,290421,,,A*6C
$GPGGA,185502.20,3720.0687095,N,12153.9757788,W,1,18,0.6,26.13,M,-32.64,M,,*6C
$GPRMC,185502.20,A,3720.069,N,12153.976,W,0.0,59.9,290421,,,A*69
$GPGGA,185502.30,3720.0687095,N,12153.9757788,W,1,18,0.6,26.13,M,-32.64,M,,*6D
$GPRMC,185502.30,A,3720.069,N,12153.976,W,0.0,59.9,290421,,,A*6E
$GPGGA,185502.40,3720.0687095,N,12153.9757788,W,1,18,0.6,26.13,M,-32.64,M,,*6A
$GPRMC,185502.40,A,3720.069,N,12153.976,W,0.0,59.9,290421,,,A*6B
$GPGGA,185502.50,3720.0687095,N,12153.9757788,W,1,18,0.6,26.13,M,-32.64,M,,*6B
$GPRMC,185502.50,A,3720.069,N,12153.976,W,0.0,59.9,290421,,,A*68
$GPGGA,185502.60,3720.0687095,N,12153.9757788,W,1,18,0.6,26.13,M,-32.64,M,,*68
$GPRMC,185502.60,A,3720.069,N,12153.976,W,0.0,59.9,290421,,,A*12
$GPGGA,185502.70,3720.0687095,N,12153.9757788,W,1,18,0.6,26.13,M,-32.64,M,,*69
$GPRMC,185502.70,A,3720.069,N,12153.976,W,0.0,59.9,290421,,,A*13
$GPGGA,185502.80,3720.0687095,N,12153.9757788,W,1,18,0.6,26.13,M,-32.64,M,,*66
$GPRMC,185502.80,A,3720.069,N,12153.976,W,0.0,59.9,290421,,,A*1C
$GPGGA,185502.90,3720.0687095,N,12153.9757788,W,1,18,0.6,26.13,M,-32.64,M,,*67
$GPRMC,185502.90,A,3720.069,N,12153.976,W,0.0,59.9,290421,,,A*1D
$GPGGA,185503.00,3720.0687095,N,12153.9757788,W,1,18,0.6,26.13,M,-32.64,M,,*6F
$GPRMC,185503.00,A,3720.069,N,12153.976,W,0.0,59.9,290421,,,A*6C
$GPGGA,185503.10,3720.0687095,N,12153.9757788,W,1,18,0.6,26.13,M,-32.64,M,,*6E
$GPRMC,185503.10,A,3720.069,N,12153.976,W,0.0,59.9,290421,,,A*6F
$GPGGA,185503.20,3720.0687095,N,12153.9757788,W,1,18,0.6,26.13,M,-32.64,M,,*6D
$GPRMC,185503.20,A,3720.069,N,12153.976,W,0.0,59.9,290421,,,A*6E
$GPGGA,185503.30,3720.0687095,N,12153.9757788,W,1,18,0.6,26.13,M,-32.64,M,,*6C
$GPRMC,185503.30,A,3720.069,N,12153.976,W,0.0,59.9,290421,,,A*69
$GPGGA,185503.40,3720.0687095,N,12153.9757788,W,1,18,0.6,26.13,M,-32.64,M,,*6B
$GPRMC,185503.40,A,3720.069,N,12153.976,W,0.0,59.9,290421,,,A*68
$GPGGA,185503.50,3720.0687095,N,12153.9757788,W,1,18,0.6,26.13,M,-32.64,M,,*6A
$GPRMC,185503.50,A,3720.069,N,12153.976,W,0.0,59.9,290421,,,A*6B
$GPGGA,185503.60,3720.0687095,N,12153.9757788,W,1,18,0.6,26.13,M,-32.64,M,,*69
$GPRMC,185503.60,A,3720.069,N,12153.976,W,0.0,59.9,290421,,,A*13
$GPGGA,185503.70,3720.0687095,N,12153.9757788,W,1,18,0.6,26.13,M,-32.64,M,,*68
$GPRMC,185503.70,A,3720.069,N,12153.976,W,0.0,59.9,290421,,,A*12
$GPGGA,185503.80,3720.0687095,N,12153.9757788,W,1,18,0.6,26.13,M,-32.64,M,,*67
$GPRMC,185503.80,A,3720.069,N,12153.976,W,0.0,59.9,290421,,,A*1D
$GPGGA,185503.90,3720.0687095,N,12153.9757788,W,1,18,0.6,26.13,M,-32.64,M,,*66
$GPRMC,185503.90,A,3720.069,N,12153.976,W,0.0,59.9,290421,,,A*1C
$GPGGA,185504.00,3720.0687095,N,12153.9757788,W,1,18,0.6,26.13,M,-32.64,M,,*68
$GPRMC,185504.00,A,3720.069,N,12153.976,W,0.0,59.9,290421,,,A*12
$GPGGA,185504.10,3720.0687095,N,12153.9757788,W,1,18,0.6,26.13,M,-32.64,M,,*69
$GPRMC,185504.10,A,3720.069,N,12153.976,W,0.0,59.9,290421,,,A*13
$GPGGA,185504.20,3720.0687095,N,12153.9757788,W,1,18,0.6,26.13,M,-32.64,M,,*6A
$GPRMC,185504.20,A,3720.069,N,12153.976,W,0.0,59.9,290421,,,A*6B
$GPGGA,185504.30,3720.0687095,N,12153.9757788,W,1,18,0.6,26.13,M,-32.64,M,,*6B
$GPRMC,185504.30,A,3720.069,N,12153.976,W,0.0,59.9,290421,,,A*68
$GPGGA,185504.40,3720.0687095,N,12153.9757788,W,1,18,0.6,26.13,M,-32.64,M,,*6C
$GPRMC,185504.40,A,3720.069,N,12153.976,W,0.0,59.9,290421,,,A*69
$GPGGA,185504.50,3720.0687095,N,12153.9757788,W,1,18,0.6,26.13,M,-32.64,M,,*6D
$GPRMC,185504.50,A,3720.069,N,12153.976,W,0.0,59.9,290421,,,A*6E
$GPGGA,185504.60,3720.0687095,N,12153.9757788,W,1,18,0.6,26.13,M,-32.64,M,,*6E
$GPRMC,185504.60,A,3720.069,N,12153.976,W,0.0,59.9,290421,,,A*6F
$GPGGA,185504.70,3720.0687095,N,12153.9757788,W,1,18,0.6,26.13,M,-32.64,M,,*6F
$GPRMC,185504.70,A,3720.069,N,12153.976,W,0.0,59.9,290421,,,A*6C
$GPGGA,185504.80,3720.0687095,N,12153.9757788,W,1,18,0.6,26.13,M,-32.64,M,,*60
$GPRMC,185504.80,A,3720.069,N,12153.976,W,0.0,59.9,290421,,,A*1A
$GPGGA,185504.90,3720.0687095,N,12153.9757788,W,1,18,0.6,26.13,M,-32.64,M,,*61
$GPRMC,185504.90,A,3720.069,N,12153.976,W,0.0,59.9,290421,,,A*1B
$GPGGA,185505.00,3720.0687095,N,12153.9757788,W,1,18,0.6,26.13,M,-32.64,M,,*69
$GPRMC,185505.00,A,3720.069,N,12153.976,W,0.0,59.9,290421,,,A*13
$GPGGA,185505.10,3720.0687095,N,12153.9757788,W,1,18,0.6,26.13,M,-32.64,M,,*68
$GPRMC,185505.10,A,3720.069,N,12153.976,W,0.0,59.9,290421,,,A*12
$GPGGA,185505.20,3720.0687095,N,12153.9757788,W,1,18,0.6,26.13,M,-32.64,M,,*6B
$GPRMC,185505.20,A,3720.069,N,12153.976,W,0.0,59.9,290421,,,A*68
$GPGGA,185505.30,3720.0687096,N,12153.9757789,W,1,18,0.6,26.13,M,-32.64,M,,*68
$GPRMC,185505.30,A,3720.069,N,12153.976,W,0.0,59.9,290421,,,A*10
$GPGGA,185505.40,3720.0687096,N,12153.9757789,W,1,18,0.6,26.13,M,-32.64,M,,*6F
$GPRMC,185505.40,A,3720.069,N,12153.976,W,0.0,59.9,290421,,,A*6E
$GPGGA,185505.50,3720.0687096,N,12153.9757789,W,1,18,0.6,26.13,M,-32.64,M,,*6E
$GPRMC,185505.50,A,3720.069,N,12153.976,W,0.0,59.9,290421,,,A*6D
$GPGGA,185505.60,3720.0687096,N,12153.9757789,W,1,18,0.6,26.13,M,-32.64,M,,*6D
$GPRMC,185505.60,A,3720.069,N,12153.976,W,0.0,59.9,290421,,,A*6C
$GPGGA,185505.70,3720.0687096,N,12153.9757789,W,1,18,0.6,26.13,M,-32.64,M,,*6C
$GPRMC,185505.70,A,3720.069,N,12153.976,W,0.0,59.9,290421,,,A*6B
$GPGGA,185505.80,3720.0687096,N,12153.9757789,W,1,18,0.6,26.13,M,-32.64,M,,*63
$GPRMC,185505.80,A,3720.069,N,12153.976,W,0.0,59.9,290421,,,A*1B
$GPGGA,185505.90,3720.0687095,N,12153.9757788,W,1,18,0.6,26.13,M,-32.64,M,,*60
$GPRMC,185505.90,A,3720.069,N,12153.976,W,0.0,59.9,290421,,,A*1A
$GPGGA,185506.00,3720.0687096,N,12153.9757788,W,1,18,0.6,26.13,M,-32.64,M,,*69
